__X_EPSG_3031,__Y_EPSG_3031,CMI_Depth,CMI_FileNum,CMI_SurfElev,CMI_Thickness,DICE_FileNum,DICE_IceBase,DICE_SurfElev,DICE_Thickness,H_Ell,Heading,Latitude,LineFull,LineNum,Longitude,NS,PDOP,Pitch,Roll,SIR_FileNum,SIR_IceBase,SIR_SurfElev_clean,SIR_Thickness,SurfHell_Edit_lidar_edit,The_Weird,unix_sec,unixTime,UTCDate,UTCsod,UTCTime,Weird_Depth,Weird_FileNum,Weird_SurfElev,X_EPSG_3031,Y_EPSG_3031
-95236.0279831342,-1310960.75012081,,,,,,,,,898.13,-94.371542,-77.9482762286,L870:2005,L870,-175.844990977,9,2.53,4.287767,-1.004588,,,,,,,1480389110,1480389110.79,2016/11/29,11510.79,03:11:51,,,,-95213.4192527122,-1310649.53220443
-95217.28717016,-1310959.89963505,,,,,,,,,898.081,-94.321843,-77.9482963121,L870:2005,L870,-175.845803063,9,2.53,4.338398,-1.159427,,,,,,,1480389111,1480389111,2016/11/29,11511,03:11:51,,,,-95194.6828887475,-1310648.68192057
-95128.0473845222,-1310956.05898262,,,,,,,,,897.888,-94.248193,-77.9483900131,L870:2005,L870,-175.849670742,9,2.53,4.504916,-1.869414,,,,,,,1480389112,1480389112,2016/11/29,11512,03:11:52,,,,-95105.4642883513,-1310644.8421799
-95038.886967898,-1310952.43000221,,,,,,,,,897.633,-94.445518,-77.9484816853,L870:2005,L870,-175.853535698,9,2.53,4.590174,-2.100425,,,,,,,1480389113,1480389113,2016/11/29,11513,03:11:53,,,,-95016.3250381266,-1310641.214061
-94949.8404067135,-1310948.84101859,,,,,,,,,897.448,-94.557887,-77.948572865,L870:2005,L870,-175.857395889,9,2.53,4.5814,-2.644448,,,,,,,1480389114,1480389114,2016/11/29,11514,03:11:54,,,,-94927.2996163128,-1310637.6259294
-94860.8819322123,-1310945.26030768,,,,,,,,,897.639,-94.571009,-77.9486638574,L870:2005,L870,-175.861252335,9,2.53,4.250944,-2.963534,,,,,,,1480389115,1480389115,2016/11/29,11515,03:11:55,,,,-94838.3622602708,-1310634.04606853
-94771.9633224792,-1310941.67375274,,,,,,,,,897.862,-94.81949,-77.9487548225,L870:2005,L870,-175.865107088,9,2.53,3.960485,-2.753648,,,,,,,1480389116,1480389116,2016/11/29,11516,03:11:56,,,,-94749.4647595331,-1310630.46036503
-94683.0366812703,-1310938.02230219,,,,,,,,,897.657,-95.101186,-77.948846328,L870:2005,L870,-175.868962045,9,2.53,4.062633,-2.849114,,,,,,,1480389117,1480389117,2016/11/29,11517,03:11:57,,,,-94660.5592292262,-1310626.80978132
-94594.1026162748,-1310934.20296551,,,,,,,,,897.224,-95.079279,-77.9489393087,L870:2005,L870,-175.872816857,9,2.53,4.193406,-3.164019,,,,,,,1480389118,1480389118,2016/11/29,11518,03:11:58,,,,-94571.6462768951,-1310622.99135134
-94505.1904815453,-1310930.22240445,,,,,,,,,896.576,-95.07802,-77.9490336849,L870:2005,L870,-175.87667027,9,2.53,4.23092,-3.25435,,,,,,,1480389119,1480389119,2016/11/29,11519,03:11:59,,,,-94482.7552496239,-1310619.01173526
-94416.3080732943,-1310926.1105248,,,,,,,,,895.834,-95.180612,-77.94912918,L870:2005,L870,-175.88052204,9,2.53,4.256274,-2.565439,,,,,,,1480389120,1480389120,2016/11/29,11520,03:12:00,,,,-94393.8939417742,-1310614.90083175
-94327.4546244267,-1310922.06599903,,,,,,,,,894.971,-95.389117,-77.9492239905,L870:2005,L870,-175.884372823,9,2.53,4.232969,-3.989665,,,,,,,1480389121,1480389121,2016/11/29,11521,03:12:01,,,,-94305.061586433,-1310610.85726614
-94238.6465719621,-1310917.87492386,,,,,,,,,893.977,-95.700592,-77.9493200481,L870:2005,L870,-175.888221235,9,2.53,4.477581,-5.287456,,,,,,,1480389122,1480389122,2016/11/29,11522,03:12:02,,,,-94216.2746167179,-1310606.66718591
-94149.9200572301,-1310913.21239476,,,,,,,,,893.469,-96.009679,-77.9494202797,L870:2005,L870,-175.892064691,9,2.53,4.437117,-6.171629,,,,,,,1480389123,1480389123,2016/11/29,11523,03:12:03,,,,-94127.5691653785,-1310602.00576369
-94061.28084707,-1310907.97451685,,,,,,,,,893.294,-96.28748,-77.9495256252,L870:2005,L870,-175.89590262,9,2.53,4.131672,-6.270155,,,,,,,1480389124,1480389124,2016/11/29,11524,03:12:04,,,,-94038.9509978853,-1310596.76912923
-93972.6879989435,-1310902.29149737,,,,,,,,,892.874,-97.09543,-77.9496349291,L870:2005,L870,-175.899737213,9,2.53,4.376581,-6.276415,,,,,,,1480389125,1480389125,2016/11/29,11525,03:12:05,,,,-93950.3791814194,-1310591.08745889
-93884.1875768577,-1310895.94766139,,,,,,,,,892.863,-97.735082,-77.9497501201,L870:2005,L870,-175.903565799,9,2.53,4.397966,-6.361885,,,,,,,1480389126,1480389126,2016/11/29,11526,03:12:06,,,,-93861.8997690526,-1310584.7451289
-93795.7918163576,-1310888.94061997,,,,,,,,,892.792,-98.27056,-77.9498712122,L870:2005,L870,-175.907387844,9,2.53,4.342151,-6.592408,,,,,,,1480389127,1480389127,2016/11/29,11527,03:12:07,,,,-93773.5249934252,-1310577.73975094
-93707.506171171,-1310881.18502287,,,,,,,,,892.474,-98.6821,-77.9499989772,L870:2005,L870,-175.911202851,9,2.53,4.438431,-6.790387,,,,,,,1480389128,1480389128,2016/11/29,11528,03:12:08,,,,-93685.2603069703,-1310569.98599499
-93619.3543375,-1310872.57084161,,,,,,,,,892.261,-99.031291,-77.9501343992,L870:2005,L870,-175.915009454,9,2.53,4.557618,-6.859665,,,,,,,1480389129,1480389129,2016/11/29,11529,03:12:09,,,,-93597.1294002644,-1310561.37385871
-93531.3590854996,-1310863.12004539,,,,,,,,,892.418,-99.341243,-77.9502772643,L870:2005,L870,-175.918806738,9,2.54,4.33709,-5.619824,,,,,,,1480389130,1480389130,2016/11/29,11530,03:12:10,,,,-93509.1550380572,-1310551.92530608
-93443.4553174672,-1310853.10756102,,,,,,,,,892.512,-99.622329,-77.9504251184,L870:2005,L870,-175.922598393,9,2.54,4.179049,-4.820097,,,,,,,1480389131,1480389131,2016/11/29,11531,03:12:11,,,,-93421.2721381,-1310541.91519864
-93355.6072834507,-1310842.73800614,,,,,,,,,892.325,-100.094843,-77.9505761267,L870:2005,L870,-175.926386612,9,2.54,4.372111,-4.776404,,,,,,,1480389132,1480389132,2016/11/29,11532,03:12:12,,,,-93333.4449589277,-1310531.54810546
-93267.8548772292,-1310831.89861674,,,,,,,,,892.14,-100.425654,-77.9507312876,L870:2005,L870,-175.930169314,9,2.54,4.495708,-4.204415,,,,,,,1480389133,1480389133,2016/11/29,11533,03:12:13,,,,-93245.7133848485,-1310520.7112893
-93180.2167134399,-1310820.63914568,,,,,,,,,891.982,-100.557874,-77.9508901375,L870:2005,L870,-175.933945847,9,2.54,4.460011,-4.022862,,,,,,,1480389134,1480389134,2016/11/29,11534,03:12:14,,,,-93158.0960260808,-1310509.4544912
-93092.6853899071,-1310808.99093593,,,,,,,,,891.492,-100.457855,-77.9510523968,L870:2005,L870,-175.937716633,9,2.54,4.621715,-2.49926,,,,,,,1480389135,1480389135,2016/11/29,11535,03:12:15,,,,-93070.5854822061,-1310497.80904669
-93005.2277065678,-1310797.28616786,,,,,,,,,891.241,-100.299167,-77.9512150705,L870:2005,L870,-175.941484144,9,2.54,4.678906,-2.024081,,,,,,,1480389136,1480389136,2016/11/29,11536,03:12:16,,,,-92983.148561043,-1310486.1070573
-92917.8482936741,-1310785.7194882,,,,,,,,,891.087,-100.313425,-77.9513763881,L870:2005,L870,-175.945248779,9,2.54,4.471406,-2.391445,,,,,,,1480389137,1480389137,2016/11/29,11537,03:12:17,,,,-92895.7898917442,-1310474.54312353
-92830.5060869469,-1310774.15628449,,,,,,,,,890.522,-100.386491,-77.9515375986,L870:2005,L870,-175.949011908,9,2.54,4.605953,-3.149828,,,,,,,1480389138,1480389138,2016/11/29,11538,03:12:18,,,,-92808.4684197794,-1310462.98266489
-92743.2201960648,-1310762.39583818,,,,,,,,,890.351,-100.290585,-77.9517005126,L870:2005,L870,-175.952772082,9,2.54,4.603756,-2.435364,,,,,,,1480389139,1480389139,2016/11/29,11539,03:12:19,,,,-92721.2032502903,-1310451.22501048
-92656.0023288266,-1310750.60653668,,,,,,,,,890.268,-100.134977,-77.9518635935,L870:2005,L870,-175.956529311,9,2.54,4.257955,-1.707443,,,,,,,1480389140,1480389140,2016/11/29,11540,03:12:20,,,,-92634.0060882967,-1310439.43850772
-92568.7671858283,-1310738.8029625,,,,,,,,,889.398,-99.759616,-77.9520267637,L870:2005,L870,-175.96028735,9,2.54,4.617002,-1.252578,,,,,,,1480389141,1480389141,2016/11/29,11541,03:12:21,,,,-92546.7916546442,-1310427.63773567
-92481.5386361282,-1310727.19628745,,,,,,,,,888.394,-99.211315,-77.9521880901,L870:2005,L870,-175.964045809,9,2.54,5.078304,-0.879857,,,,,,,1480389142,1480389142,2016/11/29,11542,03:12:22,,,,-92459.5838127247,-1310416.03381601
-92394.4137423118,-1310716.04241787,,,,,,,,,887.826,-99.116055,-77.9523451865,L870:2005,L870,-175.967801249,9,2.54,4.880674,-2.619453,,,,,,,1480389143,1480389143,2016/11/29,11543,03:12:23,,,,-92372.4796020811,-1310404.88259432
-92307.3512613381,-1310705.03518775,,,,,,,,,887.827,-99.325975,-77.9525008599,L870:2005,L870,-175.971554522,9,2.54,4.25311,-3.70689,,,,,,,1480389144,1480389144,2016/11/29,11544,03:12:24,,,,-92285.4377894638,-1310393.87797728
-92220.2551281096,-1310693.91474248,,,,,,,,,887.487,-99.827871,-77.9526575317,L870:2005,L870,-175.97530901,9,2.54,4.256148,-4.087971,,,,,,,1480389145,1480389145,2016/11/29,11545,03:12:25,,,,-92198.3623325805,-1310382.76017197
-92133.1373745904,-1310682.41957679,,,,,,,,,887.139,-100.336867,-77.9528175691,L870:2005,L870,-175.979063391,9,2.54,4.671166,-3.279167,,,,,,,1480389146,1480389146,2016/11/29,11546,03:12:26,,,,-92111.2652605393,-1310371.2677352
-92046.1060378054,-1310670.53871306,,,,,,,,,887.003,-100.631906,-77.9529810029,L870:2005,L870,-175.982812935,9,2.54,4.516871,-1.348134,,,,,,,1480389147,1480389147,2016/11/29,11547,03:12:27,,,,-92024.2545847171,-1310359.38969194
-91959.0796801888,-1310658.48654547,,,,,,,,,886.424,-100.498887,-77.9531459381,L870:2005,L870,-175.986561842,9,2.54,4.685217,1.402856,,,,,,,1480389148,1480389148,2016/11/29,11548,03:12:28,,,,-91937.2488868812,-1310347.34038551
-91872.0031413168,-1310646.6592299,,,,,,,,,885.655,-99.724241,-77.953308812,L870:2005,L870,-175.990313721,9,2.54,4.896515,3.961025,,,,,,,1480389149,1480389149,2016/11/29,11549,03:12:29,,,,-91850.1930197028,-1310335.5158777
-91784.8685884232,-1310635.57901835,,,,,,,,,885.211,-98.558505,-77.9534648864,L870:2005,L870,-175.994070502,9,2.54,4.632476,6.283218,,,,,,,1480389150,1480389150,2016/11/29,11550,03:12:30,,,,-91763.0791522751,-1310324.43829655
-91697.5238061456,-1310625.79172955,,,,,,,,,884.666,-97.223992,-77.9536093007,L870:2005,L870,-175.997840462,9,2.54,4.561516,7.443253,,,,,,,1480389151,1480389151,2016/11/29,11551,03:12:31,,,,-91675.7551053713,-1310314.65333123
-91609.9431587097,-1310617.65952105,,,,,,,,,884.039,-95.931803,-77.9537387815,L870:2005,L870,-176.001625807,9,2.54,4.87082,7.394771,,,,,,,1480389152,1480389152,2016/11/29,11552,03:12:32,,,,-91588.1952493029,-1310306.52305329
-91522.2211767648,-1310611.38785287,,,,,,,,,883.577,-95.141421,-77.9538514022,L870:2005,L870,-176.005423035,9,2.55,5.290986,6.23802,,,,,,,1480389153,1480389153,2016/11/29,11553,03:12:33,,,,-91500.4940922777,-1310300.25287398
-91434.4704900276,-1310606.75060307,,,,,,,,,883.538,-94.572368,-77.9539491446,L870:2005,L870,-176.009226544,9,2.55,5.220198,4.728446,,,,,,,1480389154,1480389154,2016/11/29,11554,03:12:34,,,,-91412.7642372747,-1310295.61672505
-91346.6969372617,-1310603.40612775,,,,,,,,,883.862,-94.024739,-77.9540351076,L870:2005,L870,-176.01303503,9,2.55,5.104578,3.353035,,,,,,,1480389155,1480389155,2016/11/29,11555,03:12:35,,,,-91325.0115216713,-1310292.2730437
-91258.8918756643,-1310601.03426823,,,,,,,,,884.155,-93.479151,-77.9541122042,L870:2005,L870,-176.016847888,9,2.55,5.119607,1.147855,,,,,,,1480389156,1480389156,2016/11/29,11556,03:12:36,,,,-91237.2273047166,-1310289.90174725
-91171.0996994235,-1310599.2262452,,,,,,,,,884.32,-92.832147,-77.9541841188,L870:2005,L870,-176.020661941,9,2.55,5.339096,-0.255165,,,,,,,1480389157,1480389157,2016/11/29,11557,03:12:37,,,,-91149.4559700594,-1310288.09415344
-91083.3889261804,-1310598.03693484,,,,,,,,,885.186,-92.742991,-77.9542503097,L870:2005,L870,-176.024474369,9,2.55,5.624556,-1.402098,,,,,,,1480389158,1480389158,2016/11/29,11558,03:12:38,,,,-91061.7660190752,-1310286.90512542
-90995.8362964574,-1310597.18404996,,,,,,,,,886.992,-93.11521,-77.9543132924,L870:2005,L870,-176.028280975,9,2.55,5.024602,-2.361041,,,,,,,1480389159,1480389159,2016/11/29,11559,03:12:39,,,,-90974.2341740683,-1310286.05244301
-90908.271506027,-1310596.29134877,,,,,,,,,888.407,-93.354255,-77.9543765916,L870:2005,L870,-176.03208803,9,2.55,4.948592,-2.807662,,,,,,,1480389160,1480389160,2016/11/29,11560,03:12:40,,,,-90886.6901712409,-1310285.15995374
-90820.6502135649,-1310595.231287,,,,,,,,,889.569,-93.396181,-77.9544413936,L870:2005,L870,-176.035897079,9,2.55,5.584625,-3.39676,,,,,,,1480389161,1480389161,2016/11/29,11561,03:12:41,,,,-90799.0896797952,-1310284.10014363
-90733.1320076104,-1310593.85547662,,,,,,,,,891.426,-93.202486,-77.9545089457,L870:2005,L870,-176.039700733,9,2.55,5.171979,-3.156009,,,,,,,1480389162,1480389162,2016/11/29,11562,03:12:42,,,,-90711.5922503847,-1310282.72465986
-90645.6362210993,-1310592.3588749,,,,,,,,,893.208,-93.049608,-77.9545775281,L870:2005,L870,-176.043503091,9,2.55,4.786133,-2.039498,,,,,,,1480389163,1480389163,2016/11/29,11563,03:12:43,,,,-90624.1172350952,-1310281.22841343
-90558.0996727005,-1310591.05814493,,,,,,,,,894.639,-93.20231,-77.9546443044,L870:2005,L870,-176.047307855,9,2.55,4.902161,-1.857014,,,,,,,1480389164,1480389164,2016/11/29,11564,03:12:44,,,,-90536.6014675949,-1310279.92799225
-90470.566341899,-1310589.8721233,,,,,,,,,895.87,-93.414276,-77.9547099841,L870:2005,L870,-176.051112866,9,2.55,4.972765,-1.867546,,,,,,,1480389165,1480389165,2016/11/29,11565,03:12:45,,,,-90449.088916928,-1310278.74225218
-90383.0061396922,-1310588.68844574,,,,,,,,,896.971,-93.387945,-77.9547756066,L870:2005,L870,-176.054919095,9,2.55,5.016445,-2.362492,,,,,,,1480389166,1480389166,2016/11/29,11566,03:12:46,,,,-90361.549501235,-1310277.55885562
-90295.4633522251,-1310587.35898814,,,,,,,,,898.211,-92.992197,-77.9548424895,L870:2005,L870,-176.058724171,9,2.55,4.407458,-2.211527,,,,,,,1480389167,1480389167,2016/11/29,11567,03:12:47,,,,-90274.0274961474,-1310276.22971363
-90207.8187016573,-1310586.07669035,,,,,,,,,898.976,-92.852467,-77.954908955,L870:2005,L870,-176.062533863,9,2.55,4.523115,-2.006219,,,,,,,1480389168,1480389168,2016/11/29,11568,03:12:48,,,,-90186.4036521412,-1310274.94772026
-90120.119168031,-1310584.9209299,,,,,,,,,899.571,-92.993353,-77.9549742526,L870:2005,L870,-176.066346364,9,2.55,4.658131,-1.860334,,,,,,,1480389169,1480389169,2016/11/29,11569,03:12:49,,,,-90098.7249381055,-1310273.79223418
-90032.3945315774,-1310583.83545781,,,,,,,,,899.776,-93.06181,-77.9550388745,L870:2005,L870,-176.070160209,9,2.55,4.87018,-1.926857,,,,,,,1480389170,1480389170,2016/11/29,11570,03:12:50,,,,-90011.0211272018,-1310272.70701977
-89944.6622014754,-1310582.78884038,,,,,,,,,900.42,-92.998152,-77.9551030953,L870:2005,L870,-176.073974546,9,2.55,4.642461,-2.422683,,,,,,,1480389171,1480389171,2016/11/29,11571,03:12:51,,,,-89923.3096244762,-1310271.6606508
-89856.8924899973,-1310581.68405645,,,,,,,,,900.865,-92.818045,-77.9551678147,L870:2005,L870,-176.077790377,9,2.55,4.194506,-2.857301,,,,,,,1480389172,1480389172,2016/11/29,11572,03:12:52,,,,-89835.5607492488,-1310270.55612915
-89768.9851427397,-1310580.53588222,,,,,,,,,900.982,-92.782566,-77.9552329608,L870:2005,L870,-176.081612109,9,2.55,4.369887,-2.73649,,,,,,,1480389173,1480389173,2016/11/29,11573,03:12:53,,,,-89747.674270916,-1310269.40822749
-89680.9884779621,-1310579.34902134,,,,,,,,,901.259,-92.834933,-77.9552984606,L870:2005,L870,-176.085437654,9,2.55,4.303651,-2.701741,,,,,,,1480389174,1480389174,2016/11/29,11574,03:12:54,,,,-89659.6984962671,-1310268.22164837
-89592.8894855697,-1310578.12261725,,,,,,,,,901.295,-92.850017,-77.9553643298,L870:2005,L870,-176.089267576,9,2.56,4.175963,-2.04953,,,,,,,1480389175,1480389175,2016/11/29,11575,03:12:55,,,,-89571.6204182955,-1310266.99553542
-89504.6665445172,-1310576.92757448,,,,,,,,,900.864,-92.728617,-77.9554299376,L870:2005,L870,-176.093103027,9,2.56,4.490913,-1.930846,,,,,,,1480389176,1480389176,2016/11/29,11576,03:12:56,,,,-89483.4184210889,-1310265.80077635
-89416.3485174474,-1310575.82422295,,,,,,,,,900.713,-92.611329,-77.9554947179,L870:2005,L870,-176.09694293,9,2.56,4.466695,-2.704918,,,,,,,1480389177,1480389177,2016/11/29,11577,03:12:57,,,,-89395.1213604381,-1310264.69768676
-89327.8979873803,-1310574.67347845,,,,,,,,,900.993,-92.390397,-77.955559957,L870:2005,L870,-176.1007885,9,2.56,3.916192,-2.542555,,,,,,,1480389178,1480389178,2016/11/29,11578,03:12:58,,,,-89306.6918282457,-1310263.54721544
-89239.2408890742,-1310573.56288425,,,,,,,,,901.032,-92.377986,-77.9556249053,L870:2005,L870,-176.10464322,9,2.56,3.619141,-2.479902,,,,,,,1480389179,1480389179,2016/11/29,11579,03:12:59,,,,-89218.0557768531,-1310262.43688489
-89150.3208779275,-1310572.51952647,,,,,,,,,900.371,-92.441008,-77.9556893512,L870:2005,L870,-176.108509622,9,2.56,4.113466,-2.242295,,,,,,,1480389180,1480389180,2016/11/29,11580,03:13:00,,,,-89129.1568750345,-1310261.3937748
-89061.2299753839,-1310571.60352726,,,,,,,,,899.783,-92.650959,-77.9557526913,L870:2005,L870,-176.112383879,9,2.56,4.419341,-2.078211,,,,,,,1480389181,1480389181,2016/11/29,11581,03:13:01,,,,-89040.0871223881,-1310260.47799305
-88972.0132073141,-1310570.65490123,,,,,,,,,899.45,-92.598643,-77.9558163507,L870:2005,L870,-176.116263558,9,2.56,4.000025,-2.693351,,,,,,,1480389182,1480389182,2016/11/29,11582,03:13:02,,,,-88950.8915340955,-1310259.52959221
-88882.5510990233,-1310569.5961518,,,,,,,,,899.009,-92.226336,-77.9558811067,L870:2005,L870,-176.12015363,9,2.56,3.804385,-3.078309,,,,,,,1480389183,1480389183,2016/11/29,11583,03:13:03,,,,-88861.4506638249,-1310258.47109412
-88792.8292495943,-1310568.48528832,,,,,,,,,898.284,-91.984572,-77.9559464408,L870:2005,L870,-176.124054894,9,2.56,4.096933,-2.737959,,,,,,,1480389184,1480389184,2016/11/29,11584,03:13:04,,,,-88771.7501140779,-1310257.36049436
-88702.9092365255,-1310567.44419925,,,,,,,,,897.811,-92.001316,-77.9560112075,L870:2005,L870,-176.12796503,9,2.56,4.284206,-2.355853,,,,,,,1480389185,1480389185,2016/11/29,11585,03:13:05,,,,-88681.8514477345,-1310256.31965245
-88612.8390916999,-1310566.53769694,,,,,,,,,897.544,-92.274209,-77.9560747882,L870:2005,L870,-176.131882138,9,2.56,4.037547,-2.575869,,,,,,,1480389186,1480389186,2016/11/29,11586,03:13:06,,,,-88591.802685275,-1310255.41336533
-88522.5375151562,-1310565.52999007,,,,,,,,,896.961,-92.22827,-77.9561393743,L870:2005,L870,-176.135809062,9,2.56,4.089319,-2.656097,,,,,,,1480389187,1480389187,2016/11/29,11587,03:13:07,,,,-88501.5225460386,-1310254.4058977
-88432.0352084372,-1310564.45375989,,,,,,,,,896.276,-92.032987,-77.9562046497,L870:2005,L870,-176.139744563,9,2.56,4.402449,-2.384174,,,,,,,1480389188,1480389188,2016/11/29,11588,03:13:08,,,,-88411.0417242796,-1310253.329923
-88341.3922464305,-1310563.41319933,,,,,,,,,896.063,-91.870241,-77.9562696308,L870:2005,L870,-176.143686333,9,2.56,4.214189,-1.72148,,,,,,,1480389189,1480389189,2016/11/29,11589,03:13:09,,,,-88320.4202806241,-1310252.28960948
-88250.615844634,-1310562.48105635,,,,,,,,,895.676,-91.615628,-77.9563336521,L870:2005,L870,-176.147634271,9,2.56,4.183275,-1.447749,,,,,,,1480389190,1480389190,2016/11/29,11590,03:13:10,,,,-88229.6654288569,-1310251.35768778
-88159.6767786838,-1310561.75295188,,,,,,,,,895.169,-91.269678,-77.9563958626,L870:2005,L870,-176.151589928,9,2.56,4.674377,-1.706971,,,,,,,1480389191,1480389191,2016/11/29,11591,03:13:11,,,,-88138.7479515521,-1310250.62975616
-88068.6991470044,-1310561.34126414,,,,,,,,,895.449,-91.212806,-77.9564551654,L870:2005,L870,-176.15554823,9,2.56,4.453743,-2.259979,,,,,,,1480389192,1480389192,2016/11/29,11592,03:13:12,,,,-88047.7919176733,-1310250.21816615
-87977.6494244185,-1310561.1880579,,,,,,,,,895.932,-91.54304,-77.9565121071,L870:2005,L870,-176.159510464,9,2.56,4.130331,-2.871826,,,,,,,1480389193,1480389193,2016/11/29,11593,03:13:13,,,,-87956.7638100022,-1310250.06499628
-87886.4267327116,-1310561.0349158,,,,,,,,,896.132,-91.826245,-77.9565690964,L870:2005,L870,-176.163480264,9,2.56,4.384579,-3.133787,,,,,,,1480389194,1480389194,2016/11/29,11594,03:13:14,,,,-87865.5627742724,-1310249.91189054
-87795.0750178596,-1310560.72972541,,,,,,,,,896.208,-91.83699,-77.956627488,L870:2005,L870,-176.167455274,9,2.56,4.687582,-2.95732,,,,,,,1480389195,1480389195,2016/11/29,11595,03:13:15,,,,-87774.2327460273,-1310249.6067726
-87703.6779612286,-1310560.36883338,,,,,,,,,896.661,-91.733515,-77.9566863556,L870:2005,L870,-176.171432134,9,2.56,4.566876,-3.406346,,,,,,,1480389196,1480389196,2016/11/29,11596,03:13:16,,,,-87682.8573867672,-1310249.24596625
-87612.2244727621,-1310559.95835547,,,,,,,,,897.331,-91.933101,-77.9567456503,L870:2005,L870,-176.175411345,9,2.56,4.281014,-4.351761,,,,,,,1480389197,1480389197,2016/11/29,11597,03:13:17,,,,-87591.4256090681,-1310248.83558578
-87520.6351402515,-1310559.21829097,,,,,,,,,897.705,-92.142752,-77.9568079637,L870:2005,L870,-176.17939555,9,2.57,4.4196,-4.429696,,,,,,,1480389198,1480389198,2016/11/29,11598,03:13:18,,,,-87499.858019574,-1310248.09569697
-87428.9501694765,-1310558.18509055,,,,,,,,,898.056,-92.394784,-77.9568729401,L870:2005,L870,-176.183383108,9,2.57,4.650922,-3.354508,,,,,,,1480389199,1480389199,2016/11/29,11599,03:13:19,,,,-87408.1948145198,-1310247.06274183
-87337.2200810434,-1310557.02223477,,,,,,,,,898.631,-92.684331,-77.9569390637,L870:2005,L870,-176.187372297,9,2.57,4.504086,-2.880959,,,,,,,1480389200,1480389200,2016/11/29,11600,03:13:20,,,,-87316.4865025182,-1310245.9001621
-87245.4209476802,-1310555.6766971,,,,,,,,,899.227,-92.691368,-77.9570068306,L870:2005,L870,-176.191364006,9,2.57,4.196806,-2.695209,,,,,,,1480389201,1480389201,2016/11/29,11601,03:13:21,,,,-87224.7091619776,-1310244.55494386
-87153.494243047,-1310554.19783238,,,,,,,,,899.61,-92.509443,-77.9570758277,L870:2005,L870,-176.195360927,9,2.57,4.280839,-2.067781,,,,,,,1480389202,1480389202,2016/11/29,11602,03:13:22,,,,-87132.804280452,-1310243.07643022
-87061.501220094,-1310552.75779734,,,,,,,,,900.031,-92.255624,-77.9571444539,L870:2005,L870,-176.199360893,9,2.57,4.603002,-1.62991,,,,,,,1480389203,1480389203,2016/11/29,11603,03:13:23,,,,-87040.8330963503,-1310241.63673704
-86969.5797917218,-1310551.53393479,,,,,,,,,900.829,-92.135994,-77.9572110149,L870:2005,L870,-176.203358413,9,2.57,4.598891,-1.470972,,,,,,,1480389204,1480389204,2016/11/29,11604,03:13:24,,,,-86948.9334898331,-1310240.41316504
-86877.7754344902,-1310550.53580198,,,,,,,,,901.862,-91.959019,-77.9572753966,L870:2005,L870,-176.207351533,9,2.57,4.163271,-1.363798,,,,,,,1480389205,1480389205,2016/11/29,11605,03:13:25,,,,-86857.1509266642,-1310239.41526917
-86786.0195029155,-1310549.76382683,,,,,,,,,902.317,-91.712504,-77.9573376366,L870:2005,L870,-176.21134324,9,2.57,4.43742,-1.567422,,,,,,,1480389206,1480389206,2016/11/29,11606,03:13:26,,,,-86765.4167776561,-1310238.64347729
-86694.3606755365,-1310549.27532846,,,,,,,,,903.097,-91.614886,-77.957397185,L870:2005,L870,-176.215331578,9,2.57,4.491587,-1.675053,,,,,,,1480389207,1480389207,2016/11/29,11607,03:13:27,,,,-86673.7797097914,-1310238.15509489
-86602.840942036,-1310549.08125305,,,,,,,,,903.999,-91.694184,-77.9574539173,L870:2005,L870,-176.219314748,9,2.57,3.964599,-1.977631,,,,,,,1480389208,1480389208,2016/11/29,11608,03:13:28,,,,-86582.2817027848,-1310237.96106555
-86511.3171570475,-1310549.06113864,,,,,,,,,904.259,-91.766306,-77.9575090139,L870:2005,L870,-176.223298632,9,2.57,4.201727,-2.907532,,,,,,,1480389209,1480389209,2016/11/29,11609,03:13:29,,,,-86490.7796452521,-1310237.94095592
-86419.8164972038,-1310548.96714479,,,,,,,,,904.353,-91.526279,-77.95756471,L870:2005,L870,-176.227281334,9,2.57,4.445598,-2.85027,,,,,,,1480389210,1480389210,2016/11/29,11610,03:13:30,,,,-86399.3007073743,-1310237.84698438
-86328.4322659038,-1310548.92827257,,,,,,,,,904.719,-91.215805,-77.9576197779,L870:2005,L870,-176.231259163,9,2.57,4.224954,-2.698142,,,,,,,1480389211,1480389211,2016/11/29,11611,03:13:31,,,,-86307.9381704004,-1310237.80812139
-86237.1175027461,-1310549.18278062,,,,,,,,,905.137,-91.60878,-77.9576720814,L870:2005,L870,-176.235234845,9,2.57,3.782757,-3.105137,,,,,,,1480389212,1480389212,2016/11/29,11612,03:13:32,,,,-86216.6450850773,-1310238.06256902
-86145.7511547115,-1310549.46549409,,,,,,,,,905.045,-92.03125,-77.9577241019,L870:2005,L870,-176.239212888,9,2.57,3.895047,-3.506079,,,,,,,1480389213,1480389213,2016/11/29,11613,03:13:33,,,,-86125.3004271234,-1310238.34521538
-86054.3505145016,-1310549.57735082,,,,,,,,,904.708,-92.050375,-77.9577776374,L870:2005,L870,-176.24319197,9,2.57,4.101081,-4.026757,,,,,,,1480389214,1480389214,2016/11/29,11614,03:13:34,,,,-86033.921485135,-1310238.45704555
-85962.957224551,-1310549.3877956,,,,,,,,,904.467,-91.716726,-77.9578338491,L870:2005,L870,-176.247169907,9,2.57,3.94818,-3.968393,,,,,,,1480389215,1480389215,2016/11/29,11615,03:13:35,,,,-85942.5498916611,-1310238.26753532
-85871.5444919896,-1310548.93258058,,,,,,,,,904.18,-91.306697,-77.9578924282,L870:2005,L870,-176.25114797,9,2.57,3.774792,-3.593269,,,,,,,1480389216,1480389216,2016/11/29,11616,03:13:36,,,,-85851.1588601919,-1310237.81242838
-85780.1006466306,-1310548.43617221,,,,,,,,,903.813,-91.139945,-77.9579513424,L870:2005,L870,-176.255127309,9,2.57,3.818695,-3.123399,,,,,,,1480389217,1480389217,2016/11/29,11617,03:13:37,,,,-85759.7367233112,-1310237.31613785
-85688.6470835121,-1310548.04824117,,,,,,,,,903.549,-91.283259,-77.9580092192,L870:2005,L870,-176.259107419,9,2.57,3.842414,-2.702104,,,,,,,1480389218,1480389218,2016/11/29,11618,03:13:38,,,,-85668.304870978,-1310236.92829891
-85597.2054563238,-1310547.76128253,,,,,,,,,903.367,-91.564921,-77.9580661139,L870:2005,L870,-176.263087335,9,2.57,3.751207,-2.602849,,,,,,,1480389219,1480389219,2016/11/29,11619,03:13:39,,,,-85576.8849517415,-1310236.64140839
-85505.7527327065,-1310547.48737729,,,,,,,,,903.28,-91.582039,-77.9581228389,L870:2005,L870,-176.267067809,9,2.57,3.764723,-2.962724,,,,,,,1480389220,1480389220,2016/11/29,11620,03:13:40,,,,-85485.4539387102,-1310236.36756818
-85414.2822131297,-1310547.20731169,,,,,,,,,903.154,-91.444478,-77.9581795727,L870:2005,L870,-176.271049078,9,2.57,3.865826,-2.587953,,,,,,,1480389221,1480389221,2016/11/29,11621,03:13:41,,,,-85394.005133944,-1310236.08756906
-85322.8486730292,-1310546.98091692,,,,,,,,,903.237,-91.274843,-77.9582357393,L870:2005,L870,-176.275028927,9,2.58,3.901328,-2.691647,,,,,,,1480389222,1480389222,2016/11/29,11622,03:13:42,,,,-85302.5932998754,-1310235.86122804
-85231.4616193034,-1310546.81258978,,,,,,,,,903.442,-91.088606,-77.9582912932,L870:2005,L870,-176.279006954,9,2.58,3.862507,-2.741366,,,,,,,1480389223,1480389223,2016/11/29,11623,03:13:43,,,,-85211.2279411458,-1310235.69294086
-85140.1094916376,-1310546.78978141,,,,,,,,,903.671,-91.089471,-77.9583454468,L870:2005,L870,-176.282983909,9,2.58,3.910846,-2.467129,,,,,,,1480389224,1480389224,2016/11/29,11624,03:13:44,,,,-85119.8975001848,-1310235.6701379
-85048.8013547546,-1310546.90577783,,,,,,,,,903.724,-91.021597,-77.9583982558,L870:2005,L870,-176.286959377,9,2.58,3.690587,-2.857993,,,,,,,1480389225,1480389225,2016/11/29,11625,03:13:45,,,,-85028.6110395633,-1310235.78610679
-84957.4820780781,-1310547.24532515,,,,,,,,,903.536,-91.285649,-77.9584489828,L870:2005,L870,-176.290935996,9,2.58,3.727062,-2.961435,,,,,,,1480389226,1480389226,2016/11/29,11626,03:13:46,,,,-84937.313441793,-1310236.12557349
-84866.1602205039,-1310547.70437701,,,,,,,,,903.379,-91.802166,-77.958498568,L870:2005,L870,-176.294913098,9,2.58,3.504344,-3.183693,,,,,,,1480389227,1480389227,2016/11/29,11627,03:13:47,,,,-84846.0132637376,-1310236.58451638
-84774.7819089158,-1310547.92346607,,,,,,,,,902.961,-91.736096,-77.9585503089,L870:2005,L870,-176.298892015,9,2.58,3.269188,-3.711112,,,,,,,1480389228,1480389228,2016/11/29,11628,03:13:48,,,,-84754.6566450703,-1310236.80355343
-84683.2927859505,-1310547.90943123,,,,,,,,,902.172,-91.298391,-77.9586041752,L870:2005,L870,-176.302875135,9,2.58,3.623278,-3.836606,,,,,,,1480389229,1480389229,2016/11/29,11629,03:13:49,,,,-84663.189241332,-1310236.78952192
-84591.7623755625,-1310547.79062708,,,,,,,,,901.51,-91.044991,-77.9586589598,L870:2005,L870,-176.306859794,9,2.58,3.651238,-3.062604,,,,,,,1480389230,1480389230,2016/11/29,11630,03:13:50,,,,-84571.6805599726,-1310236.67074597
-84500.2156516951,-1310547.81190848,,,,,,,,,900.952,-91.228709,-77.9587124234,L870:2005,L870,-176.310845593,9,2.58,3.319255,-2.850955,,,,,,,1480389231,1480389231,2016/11/29,11631,03:13:51,,,,-84480.1555690066,-1310236.69202232
-84408.618067208,-1310547.93624551,,,,,,,,,900.163,-91.51366,-77.9587649226,L870:2005,L870,-176.314833931,9,2.58,3.292694,-3.39566,,,,,,,1480389232,1480389232,2016/11/29,11632,03:13:52,,,,-84388.579729495,-1310236.81632983
-84316.9312696732,-1310547.87950445,,,,,,,,,899.379,-91.443129,-77.9588190612,L870:2005,L870,-176.318825681,9,2.58,3.510536,-3.88155,,,,,,,1480389233,1480389233,2016/11/29,11633,03:13:53,,,,-84296.9146981146,-1310236.75960224
-84225.206246641,-1310547.6439175,,,,,,,,,898.728,-91.312079,-77.958874789,L870:2005,L870,-176.322818631,9,2.58,3.584739,-3.65755,,,,,,,1480389234,1480389234,2016/11/29,11634,03:13:54,,,,-84205.2114503114,-1310236.52407122
-84133.460607306,-1310547.30428222,,,,,,,,,898.187,-91.330552,-77.9589314161,L870:2005,L870,-176.326812225,9,2.58,3.576643,-3.455594,,,,,,,1480389235,1480389235,2016/11/29,11635,03:13:55,,,,-84113.4875910997,-1310236.18451657
-84041.7108555713,-1310546.91347974,,,,,,,,,897.686,-91.453352,-77.9589884524,L870:2005,L870,-176.330805893,9,2.58,3.540383,-3.185403,,,,,,,1480389236,1480389236,2016/11/29,11636,03:13:56,,,,-84021.7596204644,-1310235.79380686
-83949.9109829086,-1310546.41534177,,,,,,,,,896.973,-91.603831,-77.959046435,L870:2005,L870,-176.334801482,9,2.58,3.745375,-2.738952,,,,,,,1480389237,1480389237,2016/11/29,11637,03:13:57,,,,-83929.9815407998,-1310235.29578715
-83858.1131977575,-1310545.82178431,,,,,,,,,896.568,-91.444491,-77.9591052252,L870:2005,L870,-176.338796753,9,2.58,3.640033,-2.972378,,,,,,,1480389238,1480389238,2016/11/29,11638,03:13:58,,,,-83838.2055481512,-1310234.7023706
-83766.3327593741,-1310545.22608035,,,,,,,,,896.49,-91.304969,-77.9591639667,L870:2005,L870,-176.342791302,9,2.58,3.508704,-3.219611,,,,,,,1480389239,1480389239,2016/11/29,11639,03:13:59,,,,-83746.4468981523,-1310234.10680805
-83674.5507820245,-1310544.66230381,,,,,,,,,896.288,-91.407613,-77.9592223609,L870:2005,L870,-176.346786046,9,2.58,3.766976,-2.595596,,,,,,,1480389240,1480389240,2016/11/29,11640,03:14:00,,,,-83654.6867095525,-1310233.54316535
-83582.818999583,-1310544.1844415,,,,,,,,,896.198,-91.674863,-77.9592798873,L870:2005,L870,-176.350778882,9,2.58,4.050282,-2.604948,,,,,,,1480389241,1480389241,2016/11/29,11641,03:14:01,,,,-83562.9767039446,-1310233.06541649
-83491.1891879477,-1310543.73168618,,,,,,,,,896.413,-91.742309,-77.9593370685,L870:2005,L870,-176.354767386,9,2.58,3.931588,-2.766799,,,,,,,1480389242,1480389242,2016/11/29,11642,03:14:02,,,,-83471.3686449354,-1310232.61276865
-83399.6337711803,-1310543.25302847,,,,,,,,,896.742,-91.728743,-77.9593943841,L870:2005,L870,-176.358752617,9,2.58,3.821924,-2.861442,,,,,,,1480389243,1480389243,2016/11/29,11643,03:14:03,,,,-83379.834963133,-1310232.13422457
-83308.1507387886,-1310542.72258271,,,,,,,,,896.987,-91.683903,-77.9594520706,L870:2005,L870,-176.362734591,9,2.58,3.853321,-2.772203,,,,,,,1480389244,1480389244,2016/11/29,11644,03:14:04,,,,-83288.3736485225,-1310231.60390474
-83216.7217138176,-1310542.17089543,,,,,,,,,897.133,-91.667877,-77.9595098612,L870:2005,L870,-176.366714193,9,2.58,4.137677,-2.871631,,,,,,,1480389245,1480389245,2016/11/29,11645,03:14:05,,,,-83196.9663285115,-1310231.05234843
-83125.3695700217,-1310541.61676712,,,,,,,,,897.504,-91.733459,-77.959567572,L870:2005,L870,-176.370690479,9,2.59,4.231596,-2.800627,,,,,,,1480389246,1480389246,2016/11/29,11646,03:14:06,,,,-83105.6358714243,-1310230.49835167
-83034.1408462852,-1310541.06984479,,,,,,,,,898.077,-91.906945,-77.9596250887,L870:2005,L870,-176.374661449,9,2.59,3.97248,-2.700026,,,,,,,1480389247,1480389247,2016/11/29,11647,03:14:07,,,,-83014.428805097,-1310229.95155917
-82943.0003413214,-1310540.4834719,,,,,,,,,898.35,-91.986123,-77.9596828557,L870:2005,L870,-176.378628507,9,2.59,3.846581,-2.922773,,,,,,,1480389248,1480389248,2016/11/29,11648,03:14:08,,,,-82923.3099365994,-1310229.36532548
-82851.9481089471,-1310539.79485387,,,,,,,,,898.373,-91.921468,-77.9597414437,L870:2005,L870,-176.382591478,9,2.59,3.971427,-2.992161,,,,,,,1480389249,1480389249,2016/11/29,11649,03:14:09,,,,-82832.2793197357,-1310228.67687094
-82761.0223704481,-1310539.01184295,,,,,,,,,898.48,-91.91084,-77.9598007596,L870:2005,L870,-176.38654872,9,2.59,3.919033,-2.994545,,,,,,,1480389250,1480389250,2016/11/29,11650,03:14:10,,,,-82741.3751667181,-1310227.8940459
-82670.214230699,-1310538.19341271,,,,,,,,,898.673,-91.990915,-77.9598602729,L870:2005,L870,-176.390500783,9,2.59,3.770496,-2.608825,,,,,,,1480389251,1480389251,2016/11/29,11651,03:14:11,,,,-82650.5885845328,-1310227.07580995
-82579.4891034729,-1310537.39486935,,,,,,,,,898.704,-92.111292,-77.9599195011,L870:2005,L870,-176.394449325,9,2.59,3.625368,-2.351282,,,,,,,1480389252,1480389252,2016/11/29,11652,03:14:12,,,,-82559.8849951636,-1310226.27745616
-82488.8213778225,-1310536.59105411,,,,,,,,,898.438,-92.050569,-77.9599786876,L870:2005,L870,-176.398395392,9,2.59,3.747381,-2.490458,,,,,,,1480389253,1480389253,2016/11/29,11653,03:14:13,,,,-82469.2387937432,-1310225.47383175
-82398.2281124565,-1310535.77865016,,,,,,,,,898.062,-91.923317,-77.9600378529,L870:2005,L870,-176.402338232,9,2.59,3.87371,-2.428251,,,,,,,1480389254,1480389254,2016/11/29,11654,03:14:14,,,,-82378.6670349306,-1310224.66162066
-82307.7252622028,-1310535.00769225,,,,,,,,,897.8,-91.87731,-77.9600965334,L870:2005,L870,-176.406277287,9,2.59,3.766772,-2.277083,,,,,,,1480389255,1480389255,2016/11/29,11655,03:14:15,,,,-82288.1856697659,-1310223.89084577
-82217.2699760796,-1310534.33800483,,,,,,,,,897.587,-91.961011,-77.9601542101,L870:2005,L870,-176.410214586,9,2.59,3.618123,-2.270185,,,,,,,1480389256,1480389256,2016/11/29,11656,03:14:16,,,,-82197.7518574402,-1310223.22131733
-82126.7883144532,-1310533.74761882,,,,,,,,,897.229,-92.045726,-77.9602111248,L870:2005,L870,-176.414153288,9,2.59,3.657591,-2.372878,,,,,,,1480389257,1480389257,2016/11/29,11657,03:14:17,,,,-82107.2916758728,-1310222.63107148
-82036.2822675224,-1310533.16514354,,,,,,,,,896.838,-92.107789,-77.960267925,L870:2005,L870,-176.418093111,9,2.59,3.774735,-2.667016,,,,,,,1480389258,1480389258,2016/11/29,11658,03:14:18,,,,-82016.8071147899,-1310222.04873448
-81945.7696185841,-1310532.54486839,,,,,,,,,896.521,-92.080943,-77.9603250159,L870:2005,L870,-176.422033156,9,2.59,3.778175,-2.717,,,,,,,1480389259,1480389259,2016/11/29,11659,03:14:19,,,,-81926.3159532669,-1310221.42860658
-81855.2530925324,-1310531.90457176,,,,,,,,,896.218,-92.158183,-77.9603822344,L870:2005,L870,-176.425973353,9,2.59,3.73966,-2.733153,,,,,,,1480389260,1480389260,2016/11/29,11660,03:14:20,,,,-81835.8209155509,-1310220.78846195
-81764.7268938834,-1310531.24810326,,,,,,,,,895.877,-92.258623,-77.9604395488,L870:2005,L870,-176.429913965,9,2.59,3.779581,-2.632975,,,,,,,1480389261,1480389261,2016/11/29,11661,03:14:21,,,,-81745.3162075338,-1310220.13214929
-81674.1929669014,-1310530.56203461,,,,,,,,,895.59,-92.302973,-77.96049708,L870:2005,L870,-176.433854871,9,2.59,3.769568,-2.67319,,,,,,,1480389262,1480389262,2016/11/29,11662,03:14:22,,,,-81654.8037730183,-1310219.44624352
-81583.6493531548,-1310529.82735961,,,,,,,,,895.296,-92.328264,-77.9605550018,L870:2005,L870,-176.437796105,9,2.59,3.811564,-2.791349,,,,,,,1480389263,1480389263,2016/11/29,11663,03:14:23,,,,-81564.2816540379,-1310218.71174293
-81493.0985847621,-1310529.04070587,,,,,,,,,895.005,-92.293787,-77.9606133434,L870:2005,L870,-176.441737548,9,2.59,3.836375,-2.590661,,,,,,,1480389264,1480389264,2016/11/29,11664,03:14:24,,,,-81473.7523821099,-1310217.92527594
-81402.5470178299,-1310528.23178736,,,,,,,,,894.713,-92.296844,-77.9606718312,L870:2005,L870,-176.445679004,9,2.59,3.91949,-2.445821,,,,,,,1480389265,1480389265,2016/11/29,11665,03:14:25,,,,-81383.2223118319,-1310217.11654946
-81312.0055104105,-1310527.43528932,,,,,,,,,894.485,-92.292866,-77.9607301439,L870:2005,L870,-176.449620094,9,2.59,3.953961,-2.312923,,,,,,,1480389266,1480389266,2016/11/29,11666,03:14:26,,,,-81292.7022986787,-1310216.32024051
-81221.4779676171,-1310526.67871488,,,,,,,,,894.326,-92.212983,-77.9607880294,L870:2005,L870,-176.453560722,9,2.59,3.925978,-2.367703,,,,,,,1480389267,1480389267,2016/11/29,11667,03:14:27,,,,-81202.1962468363,-1310215.56384568
-81130.9576098017,-1310525.97620907,,,,,,,,,894.16,-92.167959,-77.960845363,L870:2005,L870,-176.457501221,9,2.59,3.917114,-2.341763,,,,,,,1480389268,1480389268,2016/11/29,11668,03:14:28,,,,-81111.6973782662,-1310214.86150664
-81040.4420458967,-1310525.31603525,,,,,,,,,893.976,-92.097153,-77.9609022527,L870:2005,L870,-176.461441663,9,2.59,3.931485,-2.363427,,,,,,,1480389269,1480389269,2016/11/29,11669,03:14:29,,,,-81021.2033024685,-1310214.20148954
-80949.935413609,-1310524.71441228,,,,,,,,,893.855,-92.025657,-77.9609585488,L870:2005,L870,-176.465381911,9,2.59,3.96318,-2.524638,,,,,,,1480389270,1480389270,2016/11/29,11670,03:14:30,,,,-80930.7181561677,-1310213.60000939
-80859.4370933168,-1310524.17192964,,,,,,,,,893.812,-92.102555,-77.9610142463,L870:2005,L870,-176.469321993,9,2.6,3.956982,-2.68802,,,,,,,1480389271,1480389271,2016/11/29,11671,03:14:31,,,,-80840.2413198891,-1310213.05765553
-80768.9492753914,-1310523.63642314,,,,,,,,,893.778,-92.183791,-77.961069818,L870:2005,L870,-176.473261673,9,2.6,3.904354,-2.627325,,,,,,,1480389272,1480389272,2016/11/29,11672,03:14:32,,,,-80749.7749834842,-1310212.52227617
-80678.4634523737,-1310523.07267556,,,,,,,,,893.62,-92.2617,-77.9611255887,L870:2005,L870,-176.477201227,9,2.6,4.019913,-2.521312,,,,,,,1480389273,1480389273,2016/11/29,11673,03:14:33,,,,-80659.3106415133,-1310211.95866241
-80587.9927779507,-1310522.48132031,,,,,,,,,893.615,-92.257723,-77.9611815453,L870:2005,L870,-176.481140084,9,2.6,4.08512,-2.743797,,,,,,,1480389274,1480389274,2016/11/29,11674,03:14:34,,,,-80568.8614445409,-1310211.36744755
-80497.5497030537,-1310521.85193403,,,,,,,,,893.729,-92.276902,-77.9612377756,L870:2005,L870,-176.485077674,9,2.6,3.978209,-2.807241,,,,,,,1480389275,1480389275,2016/11/29,11675,03:14:35,,,,-80478.4398405426,-1310210.73821069
-80407.1086630216,-1310521.1857282,,,,,,,,,893.702,-92.309304,-77.9612942829,L870:2005,L870,-176.489015114,9,2.6,4.047563,-2.708904,,,,,,,1480389276,1480389276,2016/11/29,11676,03:14:36,,,,-80388.020270926,-1310210.07216301
-80316.6768764276,-1310520.49735928,,,,,,,,,893.704,-92.293969,-77.96135093,L870:2005,L870,-176.492952129,9,2.6,4.139919,-2.553713,,,,,,,1480389277,1480389277,2016/11/29,11677,03:14:37,,,,-80297.6099525508,-1310209.38395751
-80226.2778960804,-1310519.82085464,,,,,,,,,893.832,-92.331071,-77.9614073946,L870:2005,L870,-176.496887784,9,2.6,4.110585,-2.520724,,,,,,,1480389278,1480389278,2016/11/29,11678,03:14:38,,,,-80207.2324326343,-1310208.70761347
-80135.9008668118,-1310519.16761378,,,,,,,,,893.97,-92.422405,-77.9614635792,L870:2005,L870,-176.500822582,9,2.6,4.066279,-2.515137,,,,,,,1480389279,1480389279,2016/11/29,11679,03:14:39,,,,-80116.8768585852,-1310208.05452769
-80045.5271258477,-1310518.51484645,,,,,,,,,894.072,-92.421196,-77.9615197013,L870:2005,L870,-176.504757275,9,2.6,4.092351,-2.548877,,,,,,,1480389280,1480389280,2016/11/29,11680,03:14:40,,,,-80026.52457206,-1310207.40191532
-79955.1652518481,-1310517.8515318,,,,,,,,,894.228,-92.345281,-77.9615758563,L870:2005,L870,-176.50869146,9,2.6,4.097649,-2.512795,,,,,,,1480389281,1480389281,2016/11/29,11681,03:14:41,,,,-79936.1841496822,-1310206.73875813
-79864.8158199319,-1310517.18859743,,,,,,,,,894.443,-92.239885,-77.9616319446,L870:2005,L870,-176.512625141,9,2.6,4.075689,-2.379068,,,,,,,1480389282,1480389282,2016/11/29,11682,03:14:42,,,,-79845.8561664341,-1310206.07598115
-79774.4779663908,-1310516.56656061,,,,,,,,,894.592,-92.223142,-77.9616875985,L870:2005,L870,-176.516558463,9,2.6,4.057846,-2.435392,,,,,,,1480389283,1480389283,2016/11/29,11683,03:14:43,,,,-79755.5397588123,-1310205.454092
-79684.1502627346,-1310515.99455533,,,,,,,,,894.627,-92.25053,-77.9617427358,L870:2005,L870,-176.520491512,9,2.6,4.17481,-2.561885,,,,,,,1480389284,1480389284,2016/11/29,11684,03:14:44,,,,-79665.233498666,-1310204.8822225
-79593.8432650785,-1310515.40806334,,,,,,,,,894.702,-92.224058,-77.961797937,L870:2005,L870,-176.524423657,9,2.6,4.220333,-2.787408,,,,,,,1480389285,1480389285,2016/11/29,11685,03:14:45,,,,-79574.9479396041,-1310204.29586975
-79503.562863479,-1310514.79629992,,,,,,,,,894.882,-92.180848,-77.9618532969,L870:2005,L870,-176.528354613,9,2.6,4.161108,-2.686923,,,,,,,1480389286,1480389286,2016/11/29,11686,03:14:46,,,,-79484.6889702851,-1310203.68425156
-79413.3009823383,-1310514.18467304,,,,,,,,,895.183,-92.246075,-77.9619085891,L870:2005,L870,-176.532284799,9,2.6,4.077178,-2.661088,,,,,,,1480389287,1480389287,2016/11/29,11687,03:14:47,,,,-79394.4485170282,-1310203.07276988
-79323.0359307724,-1310513.56756691,,,,,,,,,895.472,-92.289584,-77.9619638766,L870:2005,L870,-176.536215145,9,2.6,3.998235,-2.622712,,,,,,,1480389288,1480389288,2016/11/29,11688,03:14:48,,,,-79304.2048940987,-1310202.45581025
-79232.753809838,-1310512.93834954,,,,,,,,,895.732,-92.359058,-77.9620192273,L870:2005,L870,-176.540146239,9,2.6,4.040507,-2.69774,,,,,,,1480389289,1480389289,2016/11/29,11689,03:14:49,,,,-79213.9442058529,-1310201.82674225
-79142.4578802213,-1310512.25138584,,,,,,,,,896.012,-92.402431,-77.9620750541,L870:2005,L870,-176.544077819,9,2.6,4.043074,-2.678542,,,,,,,1480389290,1480389290,2016/11/29,11690,03:14:50,,,,-79123.669712203,-1310201.13994164
-79052.1477216267,-1310511.50370596,,,,,,,,,896.279,-92.415384,-77.9621313842,L870:2005,L870,-176.548009896,9,2.6,4.014076,-2.426844,,,,,,,1480389291,1480389291,2016/11/29,11691,03:14:51,,,,-79033.3809929531,-1310200.39243925
-78961.8168295213,-1310510.73383844,,,,,,,,,896.407,-92.353444,-77.962187871,L870:2005,L870,-176.551942855,9,2.6,3.994231,-2.126363,,,,,,,1480389292,1480389292,2016/11/29,11692,03:14:52,,,,-78943.0715451144,-1310199.6227545
-78871.4565592254,-1310509.99183799,,,,,,,,,896.369,-92.25331,-77.9622440643,L870:2005,L870,-176.555877204,9,2.6,4.066543,-2.184501,,,,,,,1480389293,1480389293,2016/11/29,11693,03:14:53,,,,-78852.7327260596,-1310198.8809302
-78781.0769527508,-1310509.30508766,,,,,,,,,896.286,-92.216699,-77.9622997097,L870:2005,L870,-176.559812577,9,2.6,4.10569,-2.303788,,,,,,,1480389294,1480389294,2016/11/29,11694,03:14:54,,,,-78762.3745754163,-1310198.19434289
-78690.6898047868,-1310508.68709106,,,,,,,,,896.299,-92.239835,-77.962354678,L870:2005,L870,-176.563748495,9,2.6,4.063226,-2.202419,,,,,,,1480389295,1480389295,2016/11/29,11695,03:14:55,,,,-78672.008885074,-1310197.576493
-78600.2798040551,-1310508.12163151,,,,,,,,,896.389,-92.277852,-77.9624091249,L870:2005,L870,-176.567685582,9,2.6,3.918278,-2.292506,,,,,,,1480389296,1480389296,2016/11/29,11696,03:14:56,,,,-78581.6203473892,-1310197.01116769
-78509.8193148059,-1310507.57328842,,,,,,,,,896.411,-92.303055,-77.9624633873,L870:2005,L870,-176.571624949,9,2.61,3.896426,-2.576282,,,,,,,1480389297,1480389297,2016/11/29,11697,03:14:57,,,,-78491.1813331727,-1310196.46295478
-78419.3020064895,-1310506.98542109,,,,,,,,,896.365,-92.251008,-77.9625179833,L870:2005,L870,-176.575566724,9,2.61,3.953158,-2.680428,,,,,,,1480389298,1480389298,2016/11/29,11698,03:14:58,,,,-78400.6855133777,-1310195.875227
-78328.7381889809,-1310506.35333072,,,,,,,,,896.309,-92.126666,-77.9625729499,L870:2005,L870,-176.579510446,9,2.61,4.014307,-2.629148,,,,,,,1480389299,1480389299,2016/11/29,11699,03:14:59,,,,-78310.1431954316,-1310195.24328669
-78238.1467329128,-1310505.72611186,,,,,,,,,896.335,-92.091801,-77.9626278306,L870:2005,L870,-176.583455421,9,2.61,4.024715,-2.556754,,,,,,,1480389300,1480389300,2016/11/29,11700,03:15:00,,,,-78219.5732454873,-1310194.61621673
-78147.5271946972,-1310505.11443629,,,,,,,,,896.385,-92.175311,-77.9626825286,L870:2005,L870,-176.587401696,9,2.61,3.949276,-2.414216,,,,,,,1480389301,1480389301,2016/11/29,11701,03:15:01,,,,-78128.9752200621,-1310194.00468637
-78056.8641708288,-1310504.50368982,,,,,,,,,896.395,-92.271242,-77.962737185,L870:2005,L870,-176.591349904,9,2.61,3.961932,-2.506996,,,,,,,1480389302,1480389302,2016/11/29,11702,03:15:02,,,,-78038.3337193075,-1310193.39408489
-77966.1516993155,-1310503.8607903,,,,,,,,,896.433,-92.308215,-77.9627921036,L870:2005,L870,-176.595300219,9,2.61,3.969407,-2.66629,,,,,,,1480389303,1480389303,2016/11/29,11703,03:15:03,,,,-77947.6427826467,-1310192.751338
-77875.3907167549,-1310503.1623675,,,,,,,,,896.582,-92.292929,-77.9628474962,L870:2005,L870,-176.59925254,9,2.61,3.957922,-2.728722,,,,,,,1480389304,1480389304,2016/11/29,11704,03:15:04,,,,-77856.903346455,-1310192.053081
-77784.5726961165,-1310502.39681468,,,,,,,,,896.716,-92.271081,-77.9629034728,L870:2005,L870,-176.603207209,9,2.61,3.893521,-2.575797,,,,,,,1480389305,1480389305,2016/11/29,11705,03:15:05,,,,-77766.1068857261,-1310191.28770992
-77693.6902563031,-1310501.60354224,,,,,,,,,896.779,-92.21192,-77.9629596791,L870:2005,L870,-176.60716465,9,2.61,3.94047,-2.291637,,,,,,,1480389306,1480389306,2016/11/29,11706,03:15:06,,,,-77675.2460211151,-1310190.4946258
-77602.7527543247,-1310500.84083816,,,,,,,,,896.862,-92.217345,-77.9630155802,L870:2005,L870,-176.611124606,9,2.61,4.008003,-2.30528,,,,,,,1480389307,1480389307,2016/11/29,11707,03:15:07,,,,-77584.3301074107,-1310189.73210278
-77511.7720253585,-1310500.12068797,,,,,,,,,897.022,-92.22844,-77.9630710607,L870:2005,L870,-176.615086592,9,2.61,3.959139,-2.279627,,,,,,,1480389308,1480389308,2016/11/29,11708,03:15:08,,,,-77493.3709769805,-1310189.01212355
-77420.7377670998,-1310499.42231202,,,,,,,,,897.131,-92.190282,-77.9631263149,L870:2005,L870,-176.619051003,9,2.61,3.88527,-2.227692,,,,,,,1480389309,1480389309,2016/11/29,11709,03:15:09,,,,-77402.3583299654,-1310188.31391339
-77329.6392069567,-1310498.73124955,,,,,,,,,897.162,-92.116632,-77.9631814799,L870:2005,L870,-176.623018271,9,2.61,3.957835,-2.339177,,,,,,,1480389310,1480389310,2016/11/29,11710,03:15:10,,,,-77311.281396331,-1310187.62301498
-77238.4884971839,-1310498.06171265,,,,,,,,,897.189,-92.04566,-77.9632364199,L870:2005,L870,-176.626987903,9,2.61,4.033199,-2.416143,,,,,,,1480389311,1480389311,2016/11/29,11711,03:15:11,,,,-77220.1523254471,-1310186.95363703
-77147.298154595,-1310497.43846874,,,,,,,,,897.273,-92.072198,-77.963290903,L870:2005,L870,-176.630959417,9,2.61,4.02768,-2.343499,,,,,,,1480389312,1480389312,2016/11/29,11712,03:15:12,,,,-77128.9836311557,-1310186.33054108
-77056.0677176003,-1310496.85265684,,,,,,,,,897.438,-92.120804,-77.9633450099,L870:2005,L870,-176.63493281,9,2.61,3.972336,-2.45191,,,,,,,1480389313,1480389313,2016/11/29,11713,03:15:13,,,,-77037.7748519769,-1310185.74486825
-76964.7829696008,-1310496.25851756,,,,,,,,,897.598,-92.149339,-77.963399164,L870:2005,L870,-176.638908584,9,2.61,3.914228,-2.529883,,,,,,,1480389314,1480389314,2016/11/29,11714,03:15:14,,,,-76946.5117746865,-1310185.15087001
-76873.4352428029,-1310495.62171366,,,,,,,,,897.757,-92.162323,-77.9634536819,L870:2005,L870,-176.642887029,9,2.61,3.940289,-2.488893,,,,,,,1480389315,1480389315,2016/11/29,11715,03:15:15,,,,-76855.1857335487,-1310184.51421729
-76782.0325875671,-1310494.96039923,,,,,,,,,897.923,-92.128958,-77.9635083942,L870:2005,L870,-176.646867841,9,2.61,3.954849,-2.506539,,,,,,,1480389316,1480389316,2016/11/29,11716,03:15:16,,,,-76763.8047770128,-1310183.85305985
-76690.5775419642,-1310494.30529867,,,,,,,,,898.062,-92.167489,-77.9635630202,L870:2005,L870,-176.650850988,9,2.61,3.969332,-2.465525,,,,,,,1480389317,1480389317,2016/11/29,11717,03:15:17,,,,-76672.3714425471,-1310183.19811481
-76599.0717425924,-1310493.66282975,,,,,,,,,898.193,-92.212216,-77.9636175006,L870:2005,L870,-176.654836415,9,2.61,3.971582,-2.474416,,,,,,,1480389318,1480389318,2016/11/29,11718,03:15:18,,,,-76580.8873663613,-1310182.5557984
-76507.5175599949,-1310493.01034316,,,,,,,,,898.349,-92.305456,-77.9636720399,L870:2005,L870,-176.658823961,9,2.61,3.923827,-2.515517,,,,,,,1480389319,1480389319,2016/11/29,11719,03:15:19,,,,-76489.3549184358,-1310181.90346672
-76415.9052234057,-1310492.32310403,,,,,,,,,898.503,-92.332323,-77.963726868,L870:2005,L870,-176.662813989,9,2.61,3.881562,-2.620653,,,,,,,1480389320,1480389320,2016/11/29,11720,03:15:20,,,,-76397.7643303243,-1310181.21639073
-76324.2278859794,-1310491.58902261,,,,,,,,,898.628,-92.366014,-77.9637820983,L870:2005,L870,-176.666806767,9,2.61,3.885769,-2.397483,,,,,,,1480389321,1480389321,2016/11/29,11721,03:15:21,,,,-76306.1087568066,-1310180.48248358
-76232.4908768934,-1310490.82023045,,,,,,,,,898.755,-92.373937,-77.9638376176,L870:2005,L870,-176.670802094,9,2.61,3.888313,-2.341184,,,,,,,1480389322,1480389322,2016/11/29,11722,03:15:22,,,,-76214.3935257949,-1310179.71387394
-76140.6948337852,-1310490.03388595,,,,,,,,,898.917,-92.315824,-77.9638932695,L870:2005,L870,-176.674799986,9,2.62,3.894471,-2.216217,,,,,,,1480389323,1480389323,2016/11/29,11723,03:15:23,,,,-76122.6192747757,-1310178.9277161
-76048.8418923022,-1310489.26355278,,,,,,,,,899.085,-92.224786,-77.9639487477,L870:2005,L870,-176.678800435,9,2.62,3.836792,-2.121087,,,,,,,1480389324,1480389324,2016/11/29,11724,03:15:24,,,,-76030.7881388891,-1310178.15756582
-75956.9296437867,-1310488.55086964,,,,,,,,,899.259,-92.179002,-77.9640036749,L870:2005,L870,-176.682803651,9,2.62,3.855559,-2.107882,,,,,,,1480389325,1480389325,2016/11/29,11725,03:15:25,,,,-75938.8977100494,-1310177.44505187
-75864.9671295648,-1310487.89919464,,,,,,,,,899.447,-92.170039,-77.9640580157,L870:2005,L870,-176.686809248,9,2.62,3.885683,-2.332542,,,,,,,1480389326,1480389326,2016/11/29,11726,03:15:26,,,,-75846.9570274361,-1310176.79353157
-75772.9600170447,-1310487.28888001,,,,,,,,,899.632,-92.112719,-77.9641119456,L870:2005,L870,-176.690816929,9,2.62,3.89307,-2.362658,,,,,,,1480389327,1480389327,2016/11/29,11727,03:15:27,,,,-75754.9717571122,-1310176.18336183
-75680.9141290208,-1310486.71996459,,,,,,,,,899.878,-92.136948,-77.9641654611,L870:2005,L870,-176.69482644,9,2.62,3.930145,-2.465843,,,,,,,1480389328,1480389328,2016/11/29,11728,03:15:28,,,,-75662.9477204897,-1310175.61458147
-75588.8264381763,-1310486.16477916,,,,,,,,,900.171,-92.191261,-77.9642188152,L870:2005,L870,-176.698837843,9,2.62,3.900303,-2.462144,,,,,,,1480389329,1480389329,2016/11/29,11729,03:15:29,,,,-75570.8818909703,-1310175.05952783
-75496.691877909,-1310485.6130997,,,,,,,,,900.466,-92.252802,-77.9642721034,L870:2005,L870,-176.702851333,9,2.62,3.848122,-2.550147,,,,,,,1480389330,1480389330,2016/11/29,11730,03:15:30,,,,-75478.7692031549,-1310174.50797934
-75404.5035345964,-1310485.03531178,,,,,,,,,900.729,-92.248627,-77.9643255984,L870:2005,L870,-176.706867137,9,2.62,3.769591,-2.475134,,,,,,,1480389331,1480389331,2016/11/29,11731,03:15:31,,,,-75386.6027450621,-1310173.93032858
-75312.2510758999,-1310484.42522097,,,,,,,,,900.94,-92.2153,-77.9643793618,L870:2005,L870,-176.71088569,9,2.62,3.784087,-2.405485,,,,,,,1480389332,1480389332,2016/11/29,11732,03:15:32,,,,-75294.3721868061,-1310173.32038261
-75219.9369138869,-1310483.76275133,,,,,,,,,901.12,-92.091858,-77.9644335747,L870:2005,L870,-176.714906837,9,2.62,3.762861,-2.455529,,,,,,,1480389333,1480389333,2016/11/29,11733,03:15:33,,,,-75202.0799398818,-1310172.65807024
-75127.5656656465,-1310483.06859514,,,,,,,,,901.289,-91.917798,-77.9644880465,L870:2005,L870,-176.718930429,9,2.62,3.795407,-2.417473,,,,,,,1480389334,1480389334,2016/11/29,11734,03:15:34,,,,-75109.7306202823,-1310171.96407883
-75035.1457625349,-1310482.38688096,,,,,,,,,901.532,-91.807638,-77.9645423716,L870:2005,L870,-176.722956209,9,2.62,3.754303,-2.271523,,,,,,,1480389335,1480389335,2016/11/29,11735,03:15:35,,,,-75017.332657362,-1310171.2825265
-74942.6705415695,-1310481.74920216,,,,,,,,,901.791,-91.75565,-77.9645962662,L870:2005,L870,-176.726984546,9,2.62,3.734839,-2.306585,,,,,,,1480389336,1480389336,2016/11/29,11736,03:15:36,,,,-74924.8793897202,-1310170.64499907
-74850.1420886447,-1310481.15004747,,,,,,,,,901.974,-91.752742,-77.9646497792,L870:2005,L870,-176.731015335,9,2.62,3.740576,-2.511651,,,,,,,1480389337,1480389337,2016/11/29,11737,03:15:37,,,,-74832.3729027561,-1310170.04598663
-74757.5605414261,-1310480.56742706,,,,,,,,,902.038,-91.755122,-77.9647031103,L870:2005,L870,-176.735048515,9,2.62,3.794577,-2.438336,,,,,,,1480389338,1480389338,2016/11/29,11738,03:15:38,,,,-74739.8133341026,-1310169.46350452
-74664.9368214465,-1310480.0166814,,,,,,,,,902.103,-91.81531,-77.9647561143,L870:2005,L870,-176.739083648,9,2.62,3.857798,-2.259447,,,,,,,1480389339,1480389339,2016/11/29,11739,03:15:39,,,,-74647.2116026998,-1310168.91288961
-74572.2800073929,-1310479.49133269,,,,,,,,,902.406,-91.846842,-77.9648088453,L870:2005,L870,-176.743120322,9,2.62,3.742604,-2.423183,,,,,,,1480389340,1480389340,2016/11/29,11740,03:15:40,,,,-74554.5767850794,-1310168.38766562
-74479.5689060194,-1310478.93147586,,,,,,,,,902.603,-91.825933,-77.9648618587,L870:2005,L870,-176.747159312,9,2.62,3.614132,-2.677965,,,,,,,1480389341,1480389341,2016/11/29,11741,03:15:41,,,,-74461.8876930268,-1310167.8279417
-74386.7799082356,-1310478.32488614,,,,,,,,,902.626,-91.746974,-77.9649152777,L870:2005,L870,-176.751201617,9,2.62,3.699435,-2.509352,,,,,,,1480389342,1480389342,2016/11/29,11742,03:15:42,,,,-74369.1207230562,-1310167.22149598
-74293.9349581194,-1310477.71562915,,,,,,,,,902.685,-91.740109,-77.9649686903,L870:2005,L870,-176.75524639,9,2.62,3.691088,-2.13779,,,,,,,1480389343,1480389343,2016/11/29,11743,03:15:43,,,,-74276.2978140362,-1310166.61238362
-74201.0439908377,-1310477.16082143,,,,,,,,,902.785,-91.818707,-77.9650215721,L870:2005,L870,-176.759293339,9,2.62,3.746643,-2.272155,,,,,,,1480389344,1480389344,2016/11/29,11744,03:15:44,,,,-74183.428898775,-1310166.05770761
-74108.1042132879,-1310476.63561549,,,,,,,,,902.897,-91.89702,-77.9650741503,L870:2005,L870,-176.763342524,9,2.62,3.702261,-2.275117,,,,,,,1480389345,1480389345,2016/11/29,11745,03:15:45,,,,-74090.511184833,-1310165.53262636
-74015.1115397839,-1310476.08484004,,,,,,,,,903.031,-91.88734,-77.9651269284,L870:2005,L870,-176.767393987,9,2.62,3.67716,-2.599608,,,,,,,1480389346,1480389346,2016/11/29,11746,03:15:46,,,,-73997.5405874943,-1310164.98198166
-73922.0588120191,-1310475.48806261,,,,,,,,,903.148,-91.781827,-77.9651800957,L870:2005,L870,-176.77144799,9,2.62,3.643959,-2.545817,,,,,,,1480389347,1480389347,2016/11/29,11747,03:15:47,,,,-73904.5099501512,-1310164.3853459
-73828.9556469666,-1310474.88873373,,,,,,,,,903.279,-91.698769,-77.9652332522,L870:2005,L870,-176.775504221,9,2.62,3.676088,-2.295614,,,,,,,1480389348,1480389348,2016/11/29,11748,03:15:48,,,,-73811.4288874943,-1310163.7861593
-73735.8058472982,-1310474.34055611,,,,,,,,,903.49,-91.677646,-77.9652859077,L870:2005,L870,-176.779562646,9,2.62,3.684856,-2.158787,,,,,,,1480389349,1480389349,2016/11/29,11749,03:15:49,,,,-73718.3012012924,-1310163.23811181
-73642.6107183515,-1310473.88042034,,,,,,,,,903.725,-91.678244,-77.9653377261,L870:2005,L870,-176.783623298,9,2.62,3.569857,-2.167203,,,,,,,1480389350,1480389350,2016/11/29,11750,03:15:50,,,,-73625.1281965731,-1310162.77808528
-73549.3556774522,-1310473.49533878,,,,,,,,,903.836,-91.610384,-77.9653888328,L870:2005,L870,-176.78768678,9,2.63,3.585837,-2.195607,,,,,,,1480389351,1480389351,2016/11/29,11751,03:15:51,,,,-73531.8952941242,-1310162.39309514
-73456.042750404,-1310473.16523938,,,,,,,,,903.911,-91.453711,-77.9654394091,L870:2005,L870,-176.791752954,9,2.63,3.585731,-2.270757,,,,,,,1480389352,1480389352,2016/11/29,11752,03:15:52,,,,-73438.6045192684,-1310162.0630741
-73362.6813427426,-1310472.89685412,,,,,,,,,903.966,-91.262616,-77.9654893889,L870:2005,L870,-176.795821426,9,2.63,3.584315,-2.429205,,,,,,,1480389353,1480389353,2016/11/29,11753,03:15:53,,,,-73345.2652753085,-1310161.79475255
-73269.2831309541,-1310472.7305963,,,,,,,,,903.981,-91.072842,-77.9655383988,L870:2005,L870,-176.799891785,9,2.63,3.609818,-2.450501,,,,,,,1480389354,1480389354,2016/11/29,11754,03:15:54,,,,-73251.8892359587,-1310161.6285342
-73175.8561986869,-1310472.71794033,,,,,,,,,904.022,-91.048058,-77.9655859667,L870:2005,L870,-176.803963803,9,2.63,3.632402,-2.286014,,,,,,,1480389355,1480389355,2016/11/29,11755,03:15:55,,,,-73158.4844829483,-1310161.61588124
-73082.4075973662,-1310472.84521793,,,,,,,,,904.13,-91.107056,-77.9656322132,L870:2005,L870,-176.808037138,9,2.63,3.570198,-2.445246,,,,,,,1480389356,1480389356,2016/11/29,11756,03:15:56,,,,-73065.0580660287,-1310161.74312863
-72988.9129171922,-1310473.05120999,,,,,,,,,904.104,-91.10549,-77.9656777071,L870:2005,L870,-176.812112704,9,2.63,3.510554,-2.835946,,,,,,,1480389357,1480389357,2016/11/29,11757,03:15:57,,,,-72971.5855811947,-1310161.94907178
-72895.3609513418,-1310473.27085479,,,,,,,,,903.972,-91.073295,-77.9657230454,L870:2005,L870,-176.816190831,9,2.63,3.544813,-3.110869,,,,,,,1480389358,1480389358,2016/11/29,11758,03:15:58,,,,-72878.0558242837,-1310162.16866444
-72801.7567588011,-1310473.46186929,,,,,,,,,903.873,-91.044297,-77.9657686098,L870:2005,L870,-176.820271196,9,2.63,3.54681,-3.072307,,,,,,,1480389359,1480389359,2016/11/29,11759,03:15:59,,,,-72784.4738530808,-1310162.3596336
-72708.1041368923,-1310473.62641906,,,,,,,,,903.773,-91.081376,-77.9658143786,L870:2005,L870,-176.824353639,9,2.63,3.513733,-3.152078,,,,,,,1480389360,1480389360,2016/11/29,11760,03:16:00,,,,-72690.8434640069,-1310162.5241443
-72614.3913138004,-1310473.76104305,,,,,,,,,903.611,-91.169443,-77.9658603891,L870:2005,L870,-176.828438665,9,2.63,3.48646,-3.135273,,,,,,,1480389361,1480389361,2016/11/29,11761,03:16:01,,,,-72597.1528880414,-1310162.65873633
-72520.610594079,-1310473.82315347,,,,,,,,,903.424,-91.204184,-77.9659070322,L870:2005,L870,-176.832526507,9,2.63,3.46476,-3.087822,,,,,,,1480389362,1480389362,2016/11/29,11762,03:16:02,,,,-72503.3944315649,-1310162.720832
-72426.7615279437,-1310473.80847125,,,,,,,,,903.178,-91.179928,-77.9659543469,L870:2005,L870,-176.836617175,9,2.63,3.427496,-2.992956,,,,,,,1480389363,1480389363,2016/11/29,11763,03:16:03,,,,-72409.5676448997,-1310162.70615327
-72332.8494715288,-1310473.75470448,,,,,,,,,902.843,-91.080723,-77.9660019876,L870:2005,L870,-176.840710527,9,2.63,3.418693,-2.814892,,,,,,,1480389364,1480389364,2016/11/29,11764,03:16:04,,,,-72315.6778829085,-1310162.65239927
-72238.8789936165,-1310473.72168338,,,,,,,,,902.483,-91.065511,-77.966049408,L870:2005,L870,-176.844806508,9,2.63,3.424406,-2.708742,,,,,,,1480389365,1480389365,2016/11/29,11765,03:16:05,,,,-72221.7297132891,-1310162.619386
-72144.8504409778,-1310473.73036465,,,,,,,,,902.143,-91.124715,-77.9660964173,L870:2005,L870,-176.848905153,9,2.63,3.377543,-2.735511,,,,,,,1480389366,1480389366,2016/11/29,11766,03:16:06,,,,-72127.72348273,-1310162.62806521
-72050.7528577983,-1310473.75771995,,,,,,,,,901.746,-91.138213,-77.9661432302,L870:2005,L870,-176.853006884,9,2.63,3.348923,-2.765996,,,,,,,1480389367,1480389367,2016/11/29,11767,03:16:07,,,,-72033.6482380177,-1310162.65541402
-71956.5812601358,-1310473.77069901,,,,,,,,,901.283,-91.123267,-77.9661901495,L870:2005,L870,-176.857111839,9,2.63,3.390537,-2.969335,,,,,,,1480389368,1480389368,2016/11/29,11768,03:16:08,,,,-71939.4989963933,-1310162.66839
-71862.347124292,-1310473.74256418,,,,,,,,,900.864,-91.089083,-77.9662374124,L870:2005,L870,-176.861219454,9,2.63,3.433104,-2.922886,,,,,,,1480389369,1480389369,2016/11/29,11769,03:16:09,,,,-71845.2872314339,-1310162.64026185
-71768.0611632996,-1310473.68570693,,,,,,,,,900.529,-91.116336,-77.9662849008,L870:2005,L870,-176.865329292,9,2.63,3.418395,-2.923238,,,,,,,1480389370,1480389370,2016/11/29,11770,03:16:10,,,,-71751.0236536291,-1310162.5834181
-71673.7227035135,-1310473.60614828,,,,,,,,,900.196,-91.126526,-77.9663325602,L870:2005,L870,-176.869441397,9,2.63,3.4694,-2.960404,,,,,,,1480389371,1480389371,2016/11/29,11771,03:16:11,,,,-71656.7075894935,-1310162.50387833
-71579.3347202068,-1310473.52550579,,,,,,,,,899.837,-91.192849,-77.9663801925,L870:2005,L870,-176.873555691,9,2.63,3.517291,-2.758491,176,,,173.70362895458,,,1480389372,1480389372,2016/11/29,11772,03:16:12,,,,-71562.3420135942,-1310162.42325498
