Line,UTCDate,UTCsod,UTCTime,unixTime,Latitude,Longitude,H_Ell,Pitch,Roll,Heading,X_EPSG_3031,Y_EPSG_3031,X,Y,Dist_meters,Dist_km,unix_sec,StartEnd
L20,2016/12/02,85909.13,23:51:49,1480722709.13,-85.4636605133,-159.076459089,882.385,4.395852,-5.788538,90.290545,-176108.040931926,-460613.416342322,-17.6108040931926,-46.0613416342322,0,0,1480722709,1
L20,2016/12/03,1263,00:21:03,1480724463,-84.8099316187,-144.666725084,862.219,3.885199,15.935989,60.240224,-326343.17167985,-460343.874886362,-32.634317167985,-46.0343874886362,150235.372544026,150.235372544026,1480724463,1
L50,2016/12/02,84047.7,23:20:48,1480720847.7,-84.7178975427,-148.710322747,856.111,4.184628,-3.286228,-149.729066,-298273.341156074,-490772.628518405,-29.8273341156074,-49.0772628518405,0,0,1480720847,1
L50,2016/12/02,85488,23:44:48,1480722288,-85.2641309287,-162.170632315,871.744,5.005974,-28.175341,-125.720628,-157636.953979725,-490118.377426347,-15.7636953979725,-49.0118377426347,140637.908980855,140.637908980855,1480722288,1
L70,2017/11/28,3216.405,00:53:36,1511830416.405,-85.0894723654,-162.685257646,771.282,3.707883108,-4.8432474103,72.7735515407,-158886.039760212,-509662.427527856,-15.8886039760212,-50.9662427527856,0,0,1511830416,1
L70,2017/11/28,4683,01:18:03,1511831883,-84.652829239,-151.43171844,737.781,3.3560945554,-16.8854157268,61.2029334167,-278023.1563774,-510602.896998772,-27.80231563774,-51.0602896998772,119140.828596595,119.140828596595,1511831883,1
L80,2016/12/02,81965.945,22:46:06,1480718765.945,-85.0286787097,-164.425223937,855.5,4.426591,-3.383096,107.206212,-145114.344084624,-520625.967364703,-14.5114344084624,-52.0625967364703,0,0,1480718765,1
L80,2016/12/02,83470,23:11:10,1480720270,-84.6100503956,-152.435630234,836.95,3.851108,-2.202903,92.045935,-271189.762385373,-519524.798913444,-27.1189762385373,-51.9524798913444,126080.227124109,126.080227124109,1480720270,1
L100,2017/11/28,1222.905,00:20:23,1511828422.905,-84.5012936185,-154.67756128,749.812,4.4766386057,3.1268316249,-116.448238745,-255723.945564439,-540440.286185033,-25.5723945564439,-54.0440286185033,0,0,1511828422,1
L100,2017/11/28,2518,00:41:58,1511829718,-84.9031461476,-166.864466779,782.361,3.581971707,1.2885133263,-110.748416378,-125930.416222953,-539637.475224038,-12.5930416222953,-53.9637475224038,129796.012128101,129.796012128101,1511829718,1
L110,2016/12/02,80169.41,22:16:09,1480716969.41,-84.4463587572,-155.681973506,827.665,4.333213,-2.039233,-120.2527,-248674.513079781,-550291.309570265,-24.8674513079781,-55.0291309570265,0,0,1480716969,1
L110,2016/12/02,81450,22:37:30,1480718250,-84.8226503815,-167.821438571,840.937,5.322618,-20.601655,-110.736686,-118748.702862104,-550231.177925042,-11.8748702862103,-55.0231177925042,129925.824132598,129.925824132598,1480718250,1
L130,2017/11/27,85435.255,23:43:55,1511826235.255,-84.6604208885,-168.71708702,763.537,4.5850372041,-7.7543394615,75.4386202466,-113589.017769605,-569341.102078155,-11.3589017769605,-56.9341102078155,0,0,1511826235,1
L130,2017/11/28,834,00:13:54,1511828034,-84.2545624433,-155.5732065,741.621,4.210672566,12.6015649912,101.4468243156,-258356.454970077,-568836.416495704,-25.8356454970077,-56.8836416495704,144768.316910606,144.768316910606,1511828034,1
L140,2016/12/02,77544.655,21:32:25,1480714344.655,-84.5997119651,-171.133324425,853.588,5.739227,-15.666064,87.635189,-90504.1425858806,-580154.791358066,-9.05041425858806,-58.0154791358067,0,0,1480714344,1
L140,2016/12/02,79735,22:08:55,1480716535,-84.1148856161,-155.049058516,812.665,4.157217,12.372037,74.644684,-269967.17060524,-580243.061143643,-26.996717060524,-58.0243061143643,179463.049727325,179.463049727325,1480716535,1
L160,2017/11/27,82394.535,22:53:15,1511823194.535,-84.0294610686,-157.617854398,740.248,4.4559795708,2.7652513976,-120.27901191,-247233.371653775,-600364.063776506,-24.7233371653775,-60.0364063776506,0,0,1511823194,1
L160,2017/11/27,84381,23:26:21,1511825181,-84.4715549973,-175.948064144,784.77,3.0567069187,12.1945472327,-91.7280338567,-42476.0251321768,-599624.109507367,-4.24760251321768,-59.9624109507367,204758.683544524,204.758683544524,1511825181,1
L180,2017/11/27,79173.205,21:59:33,1511819973.205,-84.2994920228,-178.697032021,794.221,3.722649407,-13.6052831615,91.7713792211,-14095.1826842763,-619704.605052267,-1.40951826842763,-61.9704605052267,0,0,1511819973,1
L180,2017/11/27,82141,22:49:01,1511822941,-83.8554975389,-157.933002778,741.602,4.6944723986,8.229358434,112.0727620743,-251047.636722297,-619278.848117339,-25.1047636722297,-61.9278848117339,236952.83653843,236.95283653843,1511822941,1
L190,2015/12/02,2367.18,00:39:27,1449016767.18,-83.7406328362,-157.991874547,793.274,4.515739,11.07193,-128.77077,-255101.219233377,-631139.962253355,-25.5101219233377,-63.1139962253355,0,0,1449016767,1
L190,2015/12/02,5300,01:28:20,1449019700,-84.2018764225,178.5238720675,810.425,2.528591,14.701523,-78.294693,16241.8745828646,-630287.485934526,1.62418745828646,-63.0287485934526,271344.432921782,271.344432921782,1449019700,1
L200,2015/12/03,83236.61,23:07:17,1449184036.61,-83.6224061505,-157.033633214,817.237,4.055916,-0.860495,-124.572303,-270647.425118194,-638647.441434688,-27.0647425118194,-63.8647441434688,0,0,1449184036,1
L200,2015/12/03,86203,23:56:43,1449187003,-84.1025047209,177.1564446562,912.698,4.383056,4.151714,-72.926837,31815.3006628608,-640531.078952624,3.18153006628608,-64.0531078952624,302468.59105898,302.46859105898,1449187003,1
L210,2015/12/01,85092.09,23:38:12,1449013092.09,-84.0085451927,176.6474657182,818.562,4.54188,-21.842748,113.878381,38102.5941263178,-650441.010131245,3.81025941263178,-65.0441010131245,0,0,1449013092,1
L210,2015/12/02,2062,00:34:22,1449016462,-83.5217541137,-157.347036878,790.502,3.669776,23.360418,91.503818,-271374.80424833,-650241.261439244,-27.137480424833,-65.0241261439244,309477.46283741,309.47746283741,1449016462,1
L230,2015/12/01,80769.985,22:26:10,1449008769.985,-83.1976645023,-155.048275842,789.075,4.432854,3.241505,-153.022843,-312140.51831393,-670862.68637626,-31.214051831393,-67.086268637626,0,0,1449008769,1
L230,2015/12/01,84651,23:30:51,1449012651,-83.8083896628,174.4649189138,827.433,3.765301,8.233955,-82.830679,64949.3169078336,-670222.881467597,6.49493169078336,-67.0222881467597,377090.37799697,377.09037799697,1449012651,1
L250,2015/11/22,82739.07,22:58:59,1448233139.07,-83.6117340873,173.5341573724,787.091,3.475731,-2.526638,109.128647,78241.0810692325,-690372.114531028,7.82410810692325,-69.0372114531028,0,0,1448233139,1
L250,2015/11/23,1197,00:19:57,1448237997,-82.8322390796,-152.364947051,846.633,3.950455,-3.274383,62.142778,-361687.489480978,-690814.658296815,-36.1687489480978,-69.0814658296815,439928.793137408,439.928793137408,1448237997,1
L270,2015/12/01,74273.555,20:37:54,1449002273.555,-83.3218335133,169.2518754277,870.037,3.915022,-0.328548,140.621864,135465.547617479,-713645.063726144,13.5465547617479,-71.3645063726144,0,0,1449002273,1
L270,2015/12/01,80007,22:13:27,1449008007,-82.6136263961,-152.127864844,782.114,3.739092,1.734311,67.673101,-375690.412038413,-710390.936278729,-37.5690412038413,-71.0390936278729,511166.31778432,511.16631778432,1449008007,1
L290,2015/11/23,82362.31,22:52:42,1448319162.31,-82.1962610506,-149.467318855,893.68,1.949911,9.595908,-146.200607,-431396.248420641,-731411.183114421,-43.1396248420641,-73.1411183114421,0,0,1448319162,1
L290,2015/11/24,1734,00:28:54,1448324934,-83.1658874455,169.2305251414,817.22,3.420477,22.963854,-70.020139,138908.159043456,-730295.680845135,13.8908159043456,-73.0295680845135,570305.49841141,570.30549841141,1448324934,1
L310,2015/12/02,24448.64,06:47:29,1449038848.64,-82.9122293018,167.1953436697,807.047,4.727949,-5.703037,166.618181,170885.510678154,-751872.54924088,17.0885510678154,-75.187254924088,0,0,1449038848,1
L310,2015/12/02,31456,08:44:16,1449045856,-81.8443918584,-147.584324894,1267.175,3.911556,3.714734,66.783004,-475786.359088048,-749266.164357445,-47.5786359088048,-74.9266164357445,646677.122209435,646.677122209435,1449045856,1
L330,2015/11/23,74323.115,20:38:43,1448311123.115,-82.7289031884,166.522094458,780.123,2.325604,-3.251195,101.287517,184368.349527741,-769256.140433408,18.4368349527741,-76.9256140433408,0,0,1448311123,1
L330,2015/11/23,81699,22:41:39,1448318499,-81.6494726082,-147.974388189,1375.871,3.785701,7.845634,59.89156,-481961.454763388,-770532.902663057,-48.1961454763388,-77.0532902663057,666331.027499429,666.331027499429,1448318499,1
L350,2017/11/30,3805.965,01:03:26,1512003805.965,-81.5033930577,-148.613821036,1007.134,4.4592795889,-9.3232802377,-83.1698564194,-481641.479963507,-789483.586767468,-48.1641479963507,-78.9483586767468,0,0,1512003805,1
L350,2017/11/30,10202,02:50:02,1512010202,-82.5086681545,165.7987005036,780.227,2.8727301707,17.4880240878,-62.6342167777,199959.668572441,-790157.55709657,19.9959668572441,-79.015755709657,681601.481748336,681.601481748336,1512010202,1
L360,2015/11/17,37771.385,10:29:31,1447756171.385,-81.4555945209,-149.564635115,1236.616,5.469313,-4.366363,-129.992434,-471119.237638491,-801868.903124981,-47.1119237638491,-80.1868903124981,0,0,1447756171,1
L360,2015/11/17,44440,12:20:40,1447762840,-82.3486181347,163.946919279,842.687,3.484615,-2.583139,-76.5258,230217.411977327,-800065.349091886,23.0217411977327,-80.0065349091886,701338.968617523,701.338968617523,1447762840,1
L370,2015/11/20,81064.115,22:31:04,1448058664.115,-81.3666022393,-149.430248013,1138.723,5.642517,4.5717,-119.918916,-477942.978542522,-809132.053921597,-47.7942978542522,-80.9132053921597,0,0,1448058664,1
L370,2015/11/21,1152,00:19:12,1448065152,-82.3910970085,168.1404619493,858.758,6.739097,11.991909,-84.00209,170143.059825798,-810221.995920216,17.0143059825798,-81.0221995920216,648086.954892246,648.086954892246,1448065152,1
L380,2015/11/17,28027.02,07:47:07,1447746427.02,-82.1509368994,163.9651664611,745.204,6.113295,-7.908358,112.392248,235921.568055663,-820872.432419506,23.5921568055663,-82.0872432419506,0,0,1447746427,1
L380,2015/11/17,36870,10:14:30,1447755270,-81.2600984763,-149.547658333,1046.775,3.586463,-0.64969,60.274452,-482181.259665174,-820140.544132502,-48.2181259665174,-82.0140544132502,718103.200689934,718.103200689933,1447755270,1
L390,2017/11/29,81331.715,22:35:32,1511994931.715,-82.0646215946,163.8801952093,760.497,5.059956108,-9.8504550172,101.4646378174,239754.449761617,-829572.437858264,23.9754449761617,-82.9572437858264,0,0,1511994931,1
L390,2017/11/30,3287,00:54:47,1512003287,-81.1307980431,-149.190577023,1004.449,3.5781271602,14.6912108249,106.258552527,-494519.685377579,-829254.379231423,-49.4519685377579,-82.9254379231423,734274.204024425,734.274204024425,1512003287,1
L400,2015/11/20,72453.31,20:07:33,1448050053.31,-82.0113367319,165.2675261183,773.779,4.786341,-8.339842,111.566158,221078.443567253,-840759.20692903,22.1078443567253,-84.075920692903,0,0,1448050053,1
L400,2015/11/20,80646,22:24:06,1448058246,-81.0363470864,-149.350853694,811.93,4.670425,23.187945,111.895103,-497460.080729609,-839514.721649766,-49.7460080729609,-83.9514721649766,718539.602000003,718.539602000003,1448058246,1
L410,2015/11/30,85060.35,23:37:40,1448926660.35,-80.9056262768,-149.235441343,942.45,4.475492,14.30771,-153.678169,-506458.661061793,-850788.414367672,-50.6458661061793,-85.0788414367672,0,0,1448926660,1
L410,2015/12/01,6417,01:46:57,1448934417,-81.8258288715,162.926796524,899.393,3.855862,-2.179506,-72.326567,261178.302216961,-850388.285670728,26.1178302216961,-85.0388285670728,767637.067561749,767.63706756175,1448934417,1
L420,2017/11/07,25616.45,07:06:56,1510038416.45,-81.699718121,162.7405010887,738.065,5.1531988484,-1.9814436943,162.8442885513,268027.611971939,-862684.934090903,26.8027611971939,-86.2684934090904,0,0,1510038416,1
L420,2017/11/07,34210,09:30:10,1510047010,-80.818120018,-149.488371266,2181.41,4.3227087333,-7.4168928213,37.294773995,-507554.774567596,-861257.256272151,-50.7554774567596,-86.1257256272151,775583.700559982,775.583700559982,1510047010,1
L430,2015/11/30,75867.375,21:04:27,1448917467.375,-81.5497832946,161.496513439,728.438,5.242783,-2.524431,144.74771,291889.991276284,-872190.842571548,29.1889991276284,-87.2190842571548,0,0,1448917467,1
L430,2015/11/30,84778,23:32:58,1448926378,-80.707539422,-149.344515293,935.394,4.283069,7.446064,66.242685,-515880.022982555,-870380.69315205,-51.5880022982555,-87.038069315205,807772.042457924,807.772042457924,1448926378,1
L440,2017/11/07,34419.89,09:33:40,1510047219.89,-80.6762103621,-149.837642911,2184.643,4.3894391024,-3.6399491162,-75.7923710096,-510091.117222001,-877750.243594972,-51.0091117222001,-87.7750243594972,0,0,1510047219,1
L440,2017/11/07,42488,11:48:08,1510055288,-81.5086212398,162.3825609946,767.8,4.6877172262,18.6070507687,-15.8335458404,279728.406183029,-880885.324187143,27.9728406183029,-88.0885324187143,789825.745517369,789.825745517369,1510055288,1
L450,2016/11/24,454.955,00:07:35,1479946054.955,-80.2902678791,-147.359963948,896.139,3.86824,-3.311058,-132.897069,-570327.258442568,-890424.459305603,-57.0327258442568,-89.0424459305603,0,0,1479946054,1
L450,2016/11/24,9440,02:37:20,1479955040,-81.3594077348,161.1965629933,1032.452,7.967744,18.624449,-52.143965,303154.880167112,-890336.537320121,30.3154880167112,-89.0336537320121,873482.143034656,873.482143034656,1479955040,1
L460,2017/11/27,35364.585,09:49:25,1511776164.585,-80.2230581449,-147.625543985,1944.863,4.0092573874,-0.2002360122,-102.910880457,-570131.199242531,-899268.942609129,-57.0131199242531,-89.9268942609129,0,0,1511776164,1
L460,2017/11/27,43558,12:05:58,1511784358,-81.24970716,160.8931313564,837.744,6.2802706065,7.8543460979,-69.651511644,311788.904684948,-900043.667895626,31.1788904684948,-90.0043667895626,881920.444207257,881.920444207257,1511784358,1
L470,2016/11/23,76971.015,21:22:51,1479936171.015,-81.1654468655,161.2209904149,758.604,5.783407,-7.39388,109.964318,309597.493293172,-910529.951247104,30.9597493293172,-91.0529951247104,0,0,1479936171,1
L470,2016/11/24,218,00:03:38,1479945818,-80.109319928,-147.679084176,895.058,4.451367,15.674551,68.572733,-575944.86284736,-910318.769514586,-57.594486284736,-91.0318769514586,885542.381321555,885.542381321555,1479945818,1
L480,2017/11/27,24910.48,06:55:10,1511765710.48,-81.0761622443,161.2651161201,739.353,5.0248603548,-3.2428913416,92.2746772748,312030.051764984,-920008.249159499,31.2030051764984,-92.0008249159499,0,0,1511765710,1
L480,2017/11/27,35067,09:44:27,1511775867,-80.0035892263,-147.678725396,1936.305,3.6225027414,8.1977598116,61.2508556067,-582137.36676181,-920093.677841756,-58.213736676181,-92.0093677841756,894167.422607719,894.167422607719,1511775867,1
L490,2015/11/24,73178.045,20:19:38,1448396378.045,-80.9659229717,160.9376269442,766.768,2.822744,-8.85139,108.218297,321218.528058932,-929597.672312333,32.1218528058932,-92.9597672312333,0,0,1448396378,1
L490,2015/11/24,83114,23:05:14,1448406314,-79.9351799688,-148.056096923,1278.994,5.165189,-26.098611,51.116922,-580026.398193189,-930261.743172901,-58.0026398193189,-93.0261743172901,901245.170908172,901.245170908172,1448406314,1
L500,2017/11/22,4978.655,01:22:59,1511313778.655,-79.8681751452,-148.309717166,889.558,4.5406208078,13.6043535234,-120.205263954,-579756.08049264,-939061.282048726,-57.975608049264,-93.9061282048726,0,0,1511313778,1
L500,2017/11/22,14518,04:01:58,1511323318,-80.8729828021,161.1033102107,1018.929,3.0543635213,18.2220918853,-52.2045457118,321819.26977379,-940134.4038612,32.181926977379,-94.01344038612,901575.988920768,901.575988920768,1511323318,1
L510,2015/11/24,83370.95,23:09:31,1448406570.95,-79.7625710332,-148.443957211,1290.837,4.285855,-4.550276,-121.043611,-583604.893332787,-950269.000836307,-58.3604893332787,-95.0269000836307,0,0,1448406570,1
L510,2015/11/25,6435,01:47:15,1448416035,-80.7272153218,160.7690611398,973.05,4.457523,-0.763898,-18.215787,332547.342629245,-953288.125362724,33.2547342629245,-95.3288125362724,916157.210620064,916.157210620064,1448416035,1
L520,2017/11/21,81443.88,22:37:24,1511303843.88,-80.6680791097,160.7210953855,954.451,3.1977534272,-5.1582350547,105.5382476024,335480.176730648,-959112.904153146,33.5480176730648,-95.9112904153146,0,0,1511303843,1
L520,2017/11/22,4705,01:18:25,1511313505,-79.730491975,-149.124221395,900.711,3.9796445238,20.1572453792,65.276474264,-574084.10970948,-960145.540529579,-57.408410970948,-96.0145540529579,909564.872620544,909.564872620544,1511313505,1
L530,2015/12/03,33512.635,09:18:33,1449134312.635,-79.6518050335,-149.378973465,688.623,2.506286,0.819515,-117.422766,-574198.164497802,-970103.37043273,-57.4198164497802,-97.010337043273,0,0,1449134312,1
L530,2015/12/03,42876,11:54:36,1449143676,-80.554283007,160.7468559202,811.802,5.482573,11.696959,-35.590845,339152.315238754,-971011.889957067,33.9152315238754,-97.1011889957067,913350.931593505,913.350931593505,1449143676,1
L540,2015/11/13,2914.605,00:48:35,1447375714.605,-79.5463228585,-149.421873773,947.526,4.007763,-3.339505,-118.498103,-579348.296998675,-980478.583170094,-57.9348296998675,-98.0478583170094,0,0,1447375714,1
L540,2015/11/13,12150,03:22:30,1447384950,-80.5049766074,161.5103819095,896.969,5.613725,19.542379,-38.954086,327892.990349781,-980559.280586117,32.7892990349781,-98.0559280586117,907241.290937398,907.241290937398,1447384950,1
L550,2015/12/03,23333.56,06:28:54,1449124133.56,-80.2691594692,159.3244558412,655.95,5.359573,-7.535898,115.114166,374163.157467185,-991473.725105049,37.4163157467185,-99.1473725105049,0,0,1449124133,1
L550,2015/12/03,33245,09:14:05,1449134045,-79.4822364396,-149.739538986,698.289,2.453607,8.158214,70.517107,-577440.657388797,-989738.558559991,-57.7440657388797,-98.9738558559991,951605.396817083,951.605396817083,1449134045,1
L560,2015/11/12,78676.21,21:51:16,1447365076.21,-80.2453800687,160.1061220633,817.386,4.3619,-0.204027,79.355399,361487.734066867,-998932.321366508,36.1487734066867,-99.8932321366508,0,0,1447365076,1
L560,2015/11/13,2446,00:40:46,1447375246,-79.4355491584,-150.365413184,818.765,3.803901,22.873617,75.524614,-569123.709125494,-1000432.27010254,-56.9123709125494,-100.043227010254,930612.651991567,930.612651991567,1447375246,1
L560.1,2017/11/10,43475.58,12:04:36,1510315475.58,-79.5247612585,-151.444760461,709.385,4.6903795112,5.716917058,-137.419301843,-545506.480297043,-1002392.10288934,-54.5506480297043,-100.239210288934,0,0,1510315475,1
L560.1,2017/11/10,46584,12:56:24,1510318584,-80.5108613913,-165.509532449,881.858,5.683873108,11.1142811466,-77.9296803526,-258547.69567824,-1000416.35884058,-25.854769567824,-100.041635884058,286965.586150058,286.965586150058,1510318584,1
L570,2016/11/25,5577.65,01:32:58,1480037577.65,-79.4243190115,-151.375508494,1098.634,4.493,-2.745997,-136.635091,-551988.424263577,-1011389.49446101,-55.1988424263577,-101.138949446101,0,0,1480037577,1
L570,2016/11/25,15324,04:15:24,1480047324,-80.1453748327,160.3839889686,1007.364,8.158698,-2.382895,-47.951447,360312.558273919,-1010981.14106003,36.0312558273919,-101.098114106003,912301.073928658,912.301073928658,1480047324,1
L580,2017/11/10,33276.805,09:14:37,1510305276.805,-80.0947117164,161.0732447323,740.168,5.1320261148,-16.6094603335,179.9526100547,349923.190221462,-1020486.75797826,34.9923190221462,-102.048675797826,0,0,1510305276,1
L580,2017/11/10,43270,12:01:10,1510315270,-79.3887396308,-151.759832873,714.189,3.9312066718,4.0861688371,99.033342736,-547036.192126953,-1018503.04564044,-54.7036192126953,-101.850304564044,896961.575931483,896.961575931483,1510315270,1
L590,2016/11/24,82463.92,22:54:24,1480028063.92,-80.0018649369,161.0178165349,899.592,5.696017,-2.063075,99.811768,354215.497737109,-1029756.60548185,35.4215497737109,-102.975660548185,0,0,1480028063,1
L590,2016/11/25,5353,01:29:13,1480037353,-79.2618199859,-151.699468264,1103.007,4.134012,22.325666,87.160872,-554701.564924026,-1030169.69868254,-55.4701564924026,-103.016969868254,908917.156534377,908.917156534377,1480037353,1
L600,2015/12/07,17936.09,04:58:56,1449464336.09,-79.8252230909,159.0942443968,1121.735,6.42451,-0.433871,73.764416,395480.786968816,-1035349.71558406,39.5480786968816,-103.534971558406,0,0,1449464336,1
L600,2015/12/07,27952,07:45:52,1449474352,-79.1807235861,-151.988551023,743.234,4.130125,-16.087352,37.182417,-553670.431418676,-1040800.85313003,-55.3670431418676,-104.080085313003,949166.87166536,949.16687166536,1449474352,1
L610,2016/12/01,85493.31,23:44:53,1480635893.31,-79.7302810417,159.9124906665,861.536,5.568612,-1.885474,118.184701,384225.215105931,-1050654.40699102,38.4225215105931,-105.065440699102,0,0,1480635893,1
L610,2016/12/02,8759,02:25:59,1480645559,-79.1489440953,-152.670173139,735.258,3.885152,-14.525826,62.639396,-542848.566696254,-1050407.79512886,-54.2848566696254,-105.040779512886,927073.814602923,927.073814602923,1480645559,1
L620,2017/11/06,79717.605,22:08:38,1510006117.605,-79.1296231812,-153.37315896,1169.995,4.2939545729,-0.3933023559,-107.562666729,-530869.1439198,-1058881.90414285,-53.08691439198,-105.888190414285,0,0,1510006117,1
L620,2017/11/07,3570,00:59:30,1510016370,-79.6391876222,159.9440316699,976.091,4.2103001434,21.0200969004,-42.7079765224,387067.554846287,-1060235.78085362,38.7067554846287,-106.023578085362,917937.69719068,917.93769719068,1510016370,1
L630,2015/12/07,28311.955,07:51:52,1449474711.955,-78.9530712806,-152.621114272,744.714,4.014255,1.213918,-112.208532,-553621.090137863,-1069007.36476497,-55.3621090137863,-106.900736476497,0,0,1449474711,1
L630,2015/12/07,37768,10:29:28,1449484168,-79.5706850423,160.3843595047,1129.898,2.754576,-17.397244,-79.074741,381426.626517893,-1070245.82797701,38.1426626517893,-107.024582797701,935048.536822699,935.048536822699,1449484168,1
L640,2017/11/06,69813.745,19:23:34,1509996213.745,-79.4872929999,160.2252125519,1327.219,6.735357383,-16.928212259,101.8901828573,387488.079068652,-1077777.38364979,38.7488079068652,-107.777738364979,0,0,1509996213,1
L640,2017/11/06,79458,22:04:18,1510005858,-78.9701802065,-153.920175844,1316.069,4.556131739,21.6317178875,103.9312380703,-528418.826152943,-1079599.11230208,-52.8418826152943,-107.959911230208,915908.716918822,915.908716918822,1510005858,1
L650,2015/11/11,79861.215,22:11:01,1447279861.215,-79.3819209238,160.5035848617,830.301,4.654371,-24.284214,179.62663,386099.542384089,-1090528.31081063,38.6099542384089,-109.052831081063,0,0,1447279861,1
L650,2015/11/12,3540,00:59:00,1447289940,-78.8307932688,-153.703006967,1165.129,3.802755,-4.651639,27.173578,-539277.320878018,-1091288.92647911,-53.9277320878018,-109.128892647911,925377.175856965,925.377175856965,1447289940,1
L650.1,2016/11/22,84269.125,23:24:29,1479857069.125,-79.3904148021,160.6675493967,734.617,5.966109,-22.930874,136.344177,382669.129153297,-1090750.69842795,38.2669129153297,-109.075069842795,0,0,1479857069,1
L650.1,2016/11/23,8101,02:15:01,1479867301,-78.8775147941,-154.123911425,1150.647,7.14633,-24.250859,15.850389,-529010.325640599,-1090611.88134464,-52.9010325640599,-109.061188134464,911679.465362403,911.679465362403,1479867301,1
L660,2015/11/19,82843.01,23:00:43,1447974043.01,-78.7298876227,-153.57424007,1113.662,5.777689,3.654182,-108.044569,-546652.947615898,-1099983.18958468,-54.6652947615898,-109.998318958468,0,0,1447974043,1
L660,2015/11/20,6114,01:41:54,1447983714,-79.3129502846,160.8955188094,793.178,7.859342,7.615859,-71.583013,381103.897026273,-1100284.07143964,38.1103897026273,-110.028407143964,927756.893431834,927.756893431834,1447983714,1
L670,2015/11/12,3876.655,01:04:37,1447290276.655,-78.61773908,-153.611211386,1174.264,3.306055,-4.534984,-129.285229,-551410.001918215,-1111354.22354359,-55.1410001918215,-111.135422354359,0,0,1447290276,1
L670,2015/11/12,13521,03:45:21,1447299921,-79.2436488946,161.2888221539,820.975,4.680348,4.426684,-74.162795,375978.092853058,-1110066.26864683,37.5978092853059,-111.006626864683,927388.98912555,927.38898912555,1447299921,1
L680,2015/11/19,71882.65,19:58:03,1447963082.65,-79.1047403199,160.6115995634,940.862,6.032728,-8.086261,109.100494,394125.768650112,-1119904.39356197,39.4125768650112,-111.990439356197,0,0,1447963082,1
L680,2015/11/19,82520,22:55:20,1447973720,-78.5085935754,-153.431304409,1044.586,3.900028,4.3173,60.378041,-560252.09572197,-1120326.03427022,-56.025209572197,-112.032603427022,954377.957511752,954.377957511752,1447973720,1
L690,2017/11/05,82658.985,22:57:39,1509922658.985,-78.4537234808,-153.846075197,1114.396,3.3268240579,4.4706731807,-108.377507028,-554780.829969942,-1129755.98954171,-55.4780829969942,-112.975598954171,0,0,1509922658,1
L690,2017/11/06,7070,01:57:50,1509933470,-79.0928004921,162.1205939011,1397.437,10.0045994073,11.7474625355,-22.8072386184,364899.432850254,-1131140.30122745,36.4899432850254,-113.114030122745,919681.304659319,919.681304659319,1509933470,1
L700,2015/11/16,39308.3,10:55:08,1447671308.3,-78.4167475274,-154.476254148,812.244,4.591091,-0.662234,-108.014822,-544069.812178593,-1139450.52922276,-54.4069812178593,-113.945052922276,0,0,1447671308,1
L700,2015/11/16,49054,13:37:34,1447681054,-78.9614124601,161.4793546491,711.527,-0.106515,-0.128471,-56.127671,382110.496204607,-1140641.83879245,38.2110496204607,-114.064183879245,926181.074550376,926.181074550376,1447681054,1
L710,2017/11/05,72683.35,20:11:23,1509912683.35,-78.8591518452,161.6981572372,1247.817,3.7504996949,-15.221949915,167.0499973145,381272.437160664,-1152736.98112296,38.1272437160664,-115.273698112296,0,0,1509912683,1
L710,2017/11/05,82361,22:52:41,1509922361,-78.3241029592,-154.529871644,966.255,4.6882386178,11.3819555693,124.3151913899,-547375.177868124,-1149137.36997252,-54.7375177868124,-114.913736997252,928654.591384273,928.654591384273,1509922361,1
L720,2015/11/16,28836.315,08:00:36,1447660836.315,-78.8290851614,162.6002264978,1390.661,5.019461,-1.839232,128.75158,364062.995028965,-1161742.52382765,36.4062995028965,-116.174252382765,0,0,1447660836,1
L720,2015/11/16,39014,10:50:14,1447671014,-78.25443899,-154.968386621,796.755,3.930973,3.170735,63.473655,-541799.255008219,-1160220.48145899,-54.1799255008219,-116.022048145899,905863.528714675,905.863528714675,1447671014,1
L740,2015/12/01,32545.195,09:02:25,1448960545.195,-78.1274870349,-155.789045912,963.883,4.633773,-1.269976,-119.503173,-530840.980739437,-1180571.03957193,-53.0840980739437,-118.057103957193,0,0,1448960545,1
L740,2015/12/01,41997,11:39:57,1448969997,-78.7101848259,163.5800791856,782.99,3.36827,4.433684,-71.032958,347828.713782018,-1180305.32319324,34.7828713782018,-118.030532319324,878669.734698778,878.669734698778,1448969997,1
L750,2017/11/26,83977.045,23:19:37,1511738377.045,-78.687271213,164.4151981494,1843.317,4.4753282221,-10.4565320693,102.0411605411,331263.903678745,-1187670.19330724,33.1263903678745,-118.767019330724,0,0,1511738377,1
L750,2017/11/27,6049,01:40:49,1511746849,-78.1214615059,-156.767198512,2134.989,5.3744186028,-16.6456901853,66.7311109734,-510870.850023349,-1190068.91774167,-51.0870850023349,-119.006891774167,842138.169941132,842.138169941132,1511746849,1
L760,2015/12/01,23337.88,06:28:58,1448951337.88,-78.5931085509,164.7211296947,746.271,4.8013,-3.329665,102.171675,327639.276678714,-1199385.13606835,32.7639276678715,-119.938513606835,0,0,1448951337,1
L760,2015/12/01,32242,08:57:22,1448960242,-77.9766540539,-156.031297989,1095.058,5.393704,1.089747,114.983368,-532572.234026897,-1197937.4962991,-53.2572234026897,-119.79374962991,860212.728812665,860.212728812665,1448960242,1
L770,2017/11/21,41962.68,11:39:23,1511264362.68,-78.7886623044,-171.896080958,756.668,2.3578977482,-1.6587065597,-79.8128343386,-172247.670021469,-1209682.05094454,-17.2247670021469,-120.968205094454,0,0,1511264362,1
L770,2017/11/21,45971,12:46:11,1511268371,-78.6596035226,168.2042432991,794.652,1.4599422986,11.4716979488,-78.0824595487,252675.17843031,-1209935.4987753,25.267517843031,-120.99354987753,424922.924037027,424.922924037027,1511268371,1
L770.1,2017/11/27,6283.805,01:44:44,1511747083.805,-77.9886675154,-157.316533988,2146.493,4.0236058131,-8.6484032786,-111.202022626,-505060.123947111,-1208364.43297603,-50.5060123947111,-120.836443297603,0,0,1511747083,1
L770.1,2017/11/27,10455,02:54:15,1511751255,-78.8557319327,-175.011812603,2186.173,3.3046314862,7.2313518985,-94.9323289738,-105603.773482668,-1209929.6503589,-10.5603773482668,-120.99296503589,399459.417002313,399.459417002313,1511751255,1
L780,2015/12/02,37598.36,10:26:38,1449051998.36,-77.8220425724,-156.814331395,1370.664,3.367469,0.598667,-126.518439,-522836.640731875,-1220712.46022377,-52.2836640731875,-122.071246022377,0,0,1449051998,1
L780,2015/12/02,45991,12:46:31,1449060391,-78.4807982798,166.459985466,818.685,2.714726,7.067377,-46.202134,293978.735474008,-1220753.09649936,29.3978735474008,-122.075309649936,816815.377216704,816.815377216704,1449060391,1
L790,2016/12/02,33455.215,09:17:35,1480670255.215,-78.3790652911,-166.220130823,714.854,4.298876,-3.977516,-110.046867,-301745.332513022,-1230352.89597292,-30.1745332513022,-123.035289597292,0,0,1480670255,1
L790,2016/12/02,40787,11:19:47,1480677587,-78.3397846986,165.8278065425,759.539,4.076456,1.2663,-1.408414,311218.219177441,-1232437.21801684,31.1218219177441,-123.243721801684,612967.095445889,612.967095445889,1480677587,1
L800,2016/12/02,26473.79,07:21:14,1480663273.79,-78.205239481,164.61868441,686.691,5.015681,-2.363104,106.384233,341072.050539849,-1239833.35239584,34.1072050539849,-123.983335239584,0,0,1480663273,1
L800,2016/12/02,33075,09:11:15,1480669875,-78.3355533918,-166.949871378,714.961,4.238816,-2.899458,92.517271,-287129.222254118,-1238747.66629066,-28.7129222254118,-123.874766629066,628202.210959401,628.202210959401,1480669875,1
L810,2015/11/23,7535.735,02:05:36,1448244335.735,-78.1069760134,-164.701223135,790.444,2.290817,-3.26689,-115.947804,-342131.758593048,-1250727.98084678,-34.2131758593048,-125.072798084678,0,0,1448244335,1
L810,2015/11/23,13870,03:51:10,1448250670,-78.2142277766,167.0564225888,842.922,2.927604,8.001112,-37.08847,287807.674970293,-1252256.88043962,28.7807674970293,-125.225688043962,629941.288924665,629.941288924665,1448250670,1
L820,2015/12/03,70707.075,19:38:27,1449171507.075,-78.1634721582,167.6042971395,727.981,4.743546,-8.776421,107.398189,277016.309648262,-1260393.14805882,27.7016309648262,-126.039314805882,0,0,1449171507,1
L820,2015/12/03,76264,21:11:04,1449177064,-78.1923811562,-167.853000911,765.109,3.044022,12.825151,89.151052,-270874.990505409,-1258481.4113522,-27.0874990505409,-125.84814113522,547894.635419362,547.894635419362,1449177064,1
L830,2016/11/29,78215.055,21:43:35,1480455815.055,-77.9516029931,165.2454283749,705.818,5.765053,-16.143531,113.191348,334581.645077929,-1270418.39366639,33.4581645077929,-127.041839366639,0,0,1480455815,1
L830,2016/11/29,83816,23:16:56,1480461416,-78.2100800444,-171.195243002,760.148,5.467556,-6.973874,81.623108,-196747.358223344,-1270213.05179415,-19.6747358223344,-127.021305179415,531329.042980345,531.329042980345,1480461416,1
L840,2016/11/28,7566.895,02:06:07,1480298766.895,-78.1515327562,-172.340247672,702.861,4.579343,-0.664965,-104.880422,-172182.314238129,-1280260.36008789,-17.2182314238129,-128.026036008789,0,0,1480298766,1
L840,2016/11/28,13194,03:39:54,1480304394,-77.8505501112,165.3654448914,716.393,4.43074,13.315489,-7.597594,334723.733416921,-1281854.40507072,33.4723733416921,-128.185440507072,506908.55401016,506.90855401016,1480304394,1
L850,2016/11/29,84297.375,23:24:57,1480461897.375,-78.0771055701,-172.999728435,777.297,3.471001,-4.603965,-94.629016,-158431.104899749,-1290267.24573338,-15.8431104899749,-129.026724573338,0,0,1480461897,1
L850,2016/11/30,2987,00:49:47,1480466987,-77.8492824842,167.0320645453,809.632,4.386490395,22.1895782448,-17.4942410912,297332.056687726,-1291182.89572697,29.7332056687726,-129.118289572697,455764.081378866,455.764081378866,1480466987,1
L860,2015/12/03,5426.28,01:30:26,1449106226.28,-78.0246188681,-174.521535527,765.653,3.98529,1.960562,-100.717057,-124659.233748395,-1299756.1165326,-12.4659233748395,-129.97561165326,0,0,1449106226,1
L860,2015/12/03,9797,02:43:17,1449110597,-77.8028577681,167.7691132537,826.094,0.380507,-36.347991,-104.767199,281778.509722641,-1299884.29290018,28.1778509722641,-129.988429290018,406437.763682226,406.437763682226,1449110597,1
L870,2016/11/29,11510.79,03:11:51,1480389110.79,-77.9482762286,-175.844990977,898.13,4.287767,-1.004588,-94.371542,-95213.4192527122,-1310649.53220443,-9.52134192527122,-131.064953220443,0,0,1480389110,1
L870,2016/11/29,15556,04:19:16,1480393156,-77.7039420334,167.6668013215,861.119,4.07012,-4.049058,-79.206299,286420.211977064,-1309994.45298555,28.6420211977064,-130.999445298555,381634.193455471,381.634193455471,1480393156,1
L880,2015/12/02,70054.98,19:27:35,1449084454.98,-77.6644882042,168.6869968586,705.917,4.796155,-0.700142,60.032867,263900.903432087,-1319136.8896462,26.3900903432087,-131.91368896462,0,0,1449084454,1
L880,2015/12/02,74039,20:33:59,1449088439,-77.8713560122,-175.540359746,729.271,3.746892,4.163366,108.329892,-102837.379460103,-1318546.73852582,-10.2837379460103,-131.854673852582,366738.757724156,366.738757724156,1449088439,1
L890,2016/11/30,11485.615,03:11:26,1480475485.615,-77.7891487993,-178.093611868,734.258,4.2601456963,-2.1005241333,-93.2175653579,-44297.1669805126,-1330843.38883356,-4.42971669805126,-133.084338883356,0,0,1480475485,1
L890,2016/11/30,14743,04:05:43,1480478743,-77.5951556879,169.466045339,785.236,2.9537521325,-14.7981304791,-81.1465576229,247333.53092459,-1330092.77370419,24.733353092459,-133.009277370419,291631.663890754,291.631663890754,1480478743,1
L900,2016/11/29,7840.735,02:10:41,1480385440.735,-77.5168908706,169.8942730723,698.437,4.842467,-11.7441,106.568147,238894.743794225,-1340371.42476887,23.8894743794225,-134.037142476887,0,0,1480385440,1
L900,2016/11/29,10612,02:56:52,1480388212,-77.7092342066,-179.188363324,788.081,4.728228,0.178202,96.804205,-18986.5361560534,-1340224.82603708,-1.89865361560534,-134.022482603708,257881.321619038,257.881321619038,1480388212,1
L910,2016/11/30,7899.91,02:11:40,1480471899.91,-77.329279604,167.8208334284,707.33,3.7859711853,-0.235018934,115.0197198402,291584.193461964,-1351008.41880373,29.1584193461964,-135.100841880373,0,0,1480471899,1
L910,2016/11/30,10799,02:59:59,1480474799,-77.6182095794,179.4711366392,673.868,3.5018836664,-1.0074431503,101.2844538061,12464.1974842828,-1350302.70924713,1.24641974842828,-135.030270924713,279120.888112229,279.120888112229,1480474799,1
T1000,2015/12/02,31750.985,08:49:11,1449046150.985,-81.9615692679,-147.474446835,1272.268,3.430792,-0.536704,-40.448888,-470343.987226331,-737566.06587415,-47.0343987226331,-73.756606587415,0,0,1449046150,1
T1000,2015/12/02,36793,10:13:13,1449051193,-77.682409173,-159.422734239,785.315,3.933106,1.316944,27.52893,-472132.180842306,-1257602.21667049,-47.2132180842306,-125.760221667049,520039.225223903,520.039225223903,1449051193,1
T1020,2015/11/23,1237.19,00:20:37,1448238037.19,-82.803515636,-152.297843707,871.287,4.550665,-3.972082,-27.694919,-363952.605988286,-693164.175368013,-36.3952605988286,-69.3164175368013,0,0,1448238037,1
T1020,2015/11/23,7298,02:01:38,1448244098,-78.0591292485,-163.77796887,710.584,3.552028,-7.440011,-17.22357,-363707.970423977,-1250096.67613463,-36.3707970423977,-125.009667613463,556932.554495353,556.932554495353,1448244098,1
T1030,2015/12/03,76316.555,21:11:57,1449177116.555,-78.2223900602,-167.705678492,757.579,3.475946,14.118769,167.130106,-273408.58977549,-1254562.38134313,-27.340858977549,-125.456238134313,0,0,1449177116,1
T1030,2015/12/03,83195,23:06:35,1449183995,-83.5967871763,-156.884792788,809.352,3.530895,11.181497,153.993661,-273401.603101748,-640509.960001607,-27.3401603101748,-64.0509960001607,614052.421381274,614.052421381274,1449183995,1
T1040,2016/12/03,2243.71,00:37:24,1480725443.71,-85.3490213569,-154.458204145,836.731,4.072167,0.326336,-2.179141,-218002.109538528,-456194.207230392,-21.8002109538528,-45.6194207230392,0,0,1480725443,1
T1040,2016/12/03,10936,03:02:16,1480734136,-78.0838460517,-170.328946241,761.604,3.548132,-28.193299,-25.572,-218257.358132177,-1280753.77642176,-21.8257358132177,-128.075377642176,824559.60869842,824.55960869842,1480734136,1
T1050,2015/12/02,83679.205,23:14:39,1449098079.205,-85.1958314872,-161.926709881,798.019,4.287137,-26.083348,25.64952,-162028.118508755,-496509.33952938,-16.2028118508754,-49.650933952938,0,0,1449098079,1
T1050,2015/12/03,4965,01:22:45,1449105765,-77.9640705986,-172.855404304,732.436,4.484228,-24.899411,-15.987453,-163224.334726294,-1302179.01266516,-16.3224334726294,-130.217901266516,805670.561174945,805.670561174945,1449105765,1
T1060,2015/12/02,74182.725,20:36:23,1449088582.725,-77.9595687935,-175.268017977,733.1,3.722265,-1.856359,171.031663,-108304.412507979,-1308388.4390928,-10.8304412507979,-130.83884390928,0,0,1449088582,1
T1060,2015/12/02,82729,22:58:49,1449097129,-84.6770491944,-169.19297341,806.076,3.993948,-25.308376,153.137323,-108516.864454533,-568486.544677255,-10.8516864454533,-56.8486544677255,739901.924916775,739.901924916775,1449097129,1
T1070,2016/12/01,3837.29,01:03:57,1480554237.29,-84.420895427,-174.948522473,860.12,4.201541,-3.361207,-4.990632,-53415.4002048455,-604287.184291984,-5.34154002048455,-60.4287184291984,0,0,1480554237,1
T1070,2016/12/01,11351,03:09:11,1480561751,-77.6724104552,-177.722548495,849.376,5.387628,-7.337911,-3.751657,-53424.7183130025,-1343343.02495204,-5.34247183130025,-134.334302495204,739055.840718796,739.055840718796,1480561751,1
T1080,2016/11/30,81774.11,22:42:54,1480545774.11,-77.4906520433,179.9329709714,839.303,5.564416,-5.546192,-169.102028,1596.1542244042,-1364376.90802435,0.15961542244042,-136.437690802436,0,0,1480545774,1
T1080,2016/12/01,3167,00:52:47,1480553567,-84.2169504761,179.8536213894,856.826,4.105312,-11.825753,-179.61555,1606.5895653416,-628852.814330181,0.16065895653416,-62.8852814330181,735524.093768201,735.524093768201,1480553567,1
T1090,2015/12/04,73.895,00:01:14,1449187273.895,-83.9946393677,175.0662090153,948.743,1.460365,1.333845,-11.206096,56167.0518491522,-650651.161296199,5.61670518491522,-65.0651161296199,0,0,1449187273,1
T1090,2015/12/04,7352,02:02:32,1449194552,-77.2847309206,177.6249903265,739.644,3.99333,-26.900624,-51.013803,57477.6767610822,-1385822.51788122,5.74776767610822,-138.582251788122,735172.524840751,735.172524840751,1449194552,1
T1100,2015/11/22,74540.57,20:42:21,1448224940.57,-77.2282316296,175.4268019176,726.609,4.561411,-1.330299,-173.852896,111085.606406777,-1388790.59564661,11.1085606406777,-138.879059564662,0,0,1448224940,1
T1100,2015/11/22,82242,22:50:42,1448232642,-83.2458429852,171.2619340488,784.349,3.587419,-6.847962,-170.955271,111609.592017814,-726145.081730025,11.1609592017814,-72.6145081730024,662645.721086844,662.645721086844,1448232642,1
T1110,2017/11/30,11384.35,03:09:44,1512011384.35,-82.9933917577,167.40212874,776.272,4.0253773579,15.7850018322,-28.8384685883,166240.460359869,-743846.882612873,16.6240460359869,-74.3846882612873,0,0,1512011384,1
T1110,2017/11/30,17454,04:50:54,1512017454,-77.2328444488,173.1205412824,724.097,2.6164919856,18.8220932884,6.1640747657,166821.157278446,-1382691.92167866,16.6821157278446,-138.269192167866,638845.302986475,638.845302986475,1512017454,1
T1120,2015/11/17,44651.43,12:24:11,1447763051.43,-82.378738964,164.484516802,833.347,3.076484,-8.779027,72.625203,221821.311937833,-799023.276592844,22.1821311937833,-79.9023276592844,0,0,1447763051,1
T1120,2015/11/17,50000,13:53:20,1447768400,-77.1185036782,170.9110469609,727.306,3.096889,-17.232265,3.005998,221990.887731,-1387648.57228434,22.1990887731,-138.764857228434,588625.320117862,588.625320117862,1447768400,1
T1130,2017/11/07,20580.175,05:43:00,1510033380.175,-77.7600512724,168.0464630806,731.585,5.3531990727,-1.8592201291,-168.897999122,276456.832171742,-1305833.26692777,27.6456832171742,-130.583326692777,0,0,1510033380,1
T1130,2017/11/07,25405,07:03:25,1510038205,-81.529913381,162.586129943,743.796,4.6326903596,-1.931893364,-164.175424431,275900.906106685,-879654.563588437,27.5900906106685,-87.9654563588437,426179.065926263,426.179065926263,1510038205,1
T1140,2015/11/24,70084.87,19:28:05,1448393284.87,-78.4467843511,164.719961563,2108.642,-3.684185,7.151968,-176.095132,331894.202316865,-1214863.65517376,33.1894202316865,-121.486365517376,0,0,1448393284,1
T1140,2015/11/24,73121,20:18:41,1448396321,-80.9388248863,160.7006477063,917.4,6.89763,-18.87922,-176.755073,326039.588217796,-931056.656876727,32.6039588217796,-93.1056656876727,283867.378873698,283.867378873698,1448396321,1
